Name,Url,Telephone,Longitude,Latitude,AddressRegion,AddressLocality,AddressCountry,Tags
126 Artist-Run Gallery,https://126gallery.com/,,-9.0494491,53.2772719,Galway,,Ireland,"Craft,Shopping,Art Gallery"
14 Henrietta Street,http://facebook.com/14HenriettaStreetDublin,+353(0)15240383,-6.270210905,53.35250667,Dublin,,Ireland,"Historic Houses and Castle,Castle"
2020 Art Gallery,https://2020curates.com/,3.53868E+11,-8.4801299,51.90143,Cork,,Ireland,"Craft,Shopping,Art Gallery"
Aasleagh Falls,,,-9.672464,53.618081,Mayo,Delphi,Ireland,Discovery Point
Abbeyderg Abbey and Graveyard,http://visitlongford.ie/listings/abbeyderg-abbey,3.53433E+11,-7.789106677,53.6334654,Longford,Kenagh,Republic of Ireland,"Church Abbey,Monastery,Churches,Abbeys and Monastery,Ruins,Historic Houses and Castle"
Abbeyleix Heritage House,http://www.abbeyleixheritage.com,3.53579E+11,-7.3464114,52.9172919,Laois,Abbeyleix,Ireland,"Historic Houses and Castle,Castle"
Abbey Road Gardens,https://www.gardensofireland.org/directory/47,35351851111,-7.102184,52.264196,Waterford,Ferrybank,Republic of Ireland,"Gardening,Nature and Wildlife,Gardens,Garden"
Abbeyshrule Monastery,http://www.facebook.com/AbbeyshruleAbbey,3.53433E+11,-7.658347079,53.57969143,Longford,Abbeyshrule,Republic of Ireland,"Church Abbey,Monastery,Churches,Abbeys and Monastery,Ruins,Historic Houses and Castle"
ACET - Cork Language Centre International,http://acetireland.ie,3.53215E+11,-8.467479,51.902273,Cork,Cork City,Republic of Ireland,"Learning,Museums and Attraction"
Achill Archaeological Field School - Scoil Seand?l?il Acla,http://www.achill-fieldschool.com,3539843564,-10.1285782,53.9747652,Mayo,,Ireland,"Learning,Museums and Attraction"
Achill Experience and Aquarium,http://www.achillexperience.ie,3539843292,-10.080603,53.983983,Mayo,,Ireland,Zoos and Aquarium
Achill Heritage Centre,https://achillheritagecentre.wordpress.com,3.53863E+11,-9.9833712,53.9762269,Mayo,,Ireland,Museums and Attraction
Achill Island -Acaill,http://achilltourism.com/,+353(0)9820400,-9.993892943,53.95175264,Mayo,,Republic of Ireland,"Island,Offshore Island"
"Achill Island Blueway, Achill Island",https://www.facebook.com/BluewayIreland,+353(0)9825711,-10.12609045,53.97379138,Mayo,,Ireland,Beach
Achill Secret Garden,http://www.achillsecretgarden.com,3.53874E+11,-9.9595077,53.875656,Mayo,,Ireland,"Gardening,Nature and Wildlife,Gardens,Garden"
Adare Franciscan Friary,http://www.adareheritagecentre.ie,,-8.779736133,52.55186692,Limerick,Adare,Republic of Ireland,"Church Abbey,Monastery,Churches,Abbeys and Monastery"
Adare Heritage Centre,http://www.adareheritagecentre.ie,35361396666,-8.7898313,52.5647887,Limerick,Adare,Ireland,Museums and Attraction
Adelaide Memorial Church,http://www.carlowtourism.com,3.53599E+11,-6.778635,52.684946,Carlow,Myshall,Republic of Ireland,"Historic Houses and Castle,Church Abbey,Monastery,Churches,Abbeys and Monastery"
Adelaide Road Presbyterian Church,http://www.adelaideroadchurch.ie,+353(0)12694944,-6.258781,53.332501,Dublin,Dublin City,Republic of Ireland,"Church Abbey,Monastery,Churches,Abbeys and Monastery"
Adrian Cooke Classical Art Atelier,http://www.classicalartatelier.com,3.53877E+11,-7.250912,52.17701,Waterford,,Ireland,"Craft,Shopping,Learning,Museums and Attraction"
Adrigole Arts,http://www.hungryhillgallery.com,3532760234,-9.7104121,51.6844057,Cork,,Ireland,"Craft,Shopping,Food Shops,Art Gallery"
Aghaboe Abbey,,3.53579E+11,-7.5140093,52.9222166,Laois,Aghaboe,Ireland,"Church Abbey,Monastery,Churches,Abbeys and Monastery,Ruins,Historic Houses and Castle"
Agharinagh Inspirational Gardens,http://www.griffinsgardencentre.ie,3.53217E+11,-8.724551,51.912194,Cork,Dripsey,Ireland,"Gardening,Nature and Wildlife,Gardens,Garden"
Agricultural Heritage Display Centre,http://www.coolakayhouse.ie/museum,35312862423,-6.1880463,53.1667259,Wicklow,Enniskerry,Ireland,Museums and Attraction
Ahakista Air India Plane Disaster Memorial,http://livingthesheepsheadway.com/air-india-disaster-memorial,3532821489,-9.621448,51.59751,Cork,Ahakista,Republic of Ireland,Public Sculpture
Ahenny High Crosses,http://www.megalithicireland.com/High%20Cross%20Ahenny.htm,,-7.393333382,52.41253746,Tipperary,Ahenny,Ireland,"Church Abbey,Monastery,Churches,Abbeys and Monastery,Ruins,Historic Houses and Castle"
Aillebrack Green Coast Beach 2019,http://www.cleancoastsireland.org,,-10.14014122,53.41647263,Galway,Ballyconneely,Ireland,Beach
Aillwee Cave & The Birds of Prey Centre,http://www.aillweecave.ie,3.53657E+11,-9.1436674,53.0891282,Clare,Ballyvaughan,Ireland,"Falconry,Nature and Wildlife,Natural Landscape,Walking"
Aillwee Cave & The Birds Of Prey Centre,http://www.aillweecave.ie,3.53657E+11,-9.143653,53.089126,Clare,Ballyvaughan,Republic of Ireland,"Learning,Museums and Attraction"
Aine Dunne - Fine Art Tapestry Weaver,http://www.ainedunneweaver.com,3.53879E+11,-6.351277,53.762114,Louth,Drogheda,Ireland,"Craft,Shopping,Learning,Museums and Attraction"
Airfield Estate,http://www.airfield.ie,35319696666,-6.2369953,53.2881795,,Dundrum,Ireland,Visitor Farm
Airmid Natural Handmade Skincare,https://airmidsoap.com/pages/about-us,3.53892E+11,-9.2627951,53.0044789,Clare,Kilfenora,Ireland,"Craft,Shopping,Learning,Museums and Attraction"
Alan Gaillard Stoneware Pottery,http://www.alangaillard.com,3539522786,-10.031529,53.503391,Galway,Clifden,Ireland,"Craft,Shopping,Food Shops,Shopping Centres and Department Store,Learning,Museums and Attraction"
Alix Gardners Cookery School,http://www.dublincookery.com,+353(0)16681553,-6.245333,53.329644,Dublin,Ballsbridge,Republic of Ireland,"Cooking,Cookery,Learning,Museums and Attraction"
Allihies Copper Mine Museum,http://www.acmm.ie/theminemuseum,3532773218,-10.045585,51.638933,Cork,Allihies,Republic of Ireland,Museums and Attraction
Aloha Surf School,http://www.surfschool.ie,3.53872E+11,-9.2861007,53.1174754,Clare,Fanore,Ireland,"Activity Operator,Kayaking,Kitesurfing,Windsurfing,Learning,Museums and Attraction,Surfing"
Alpha College of English,http://www.alphacollege.com,+353(0)18747024,-6.261824017,53.35520832,Dublin,,Republic of Ireland,"Learning,Museums and Attraction"
Altamont Gardens,http://www.heritageireland.ie/en/south-east/altamontgardens/,+353(0)599159444,-6.72083739,52.73578131,Carlow,Tullow,Republic of Ireland,"Gardening,Nature and Wildlife,Gardens,Garden"
Altar,,,-9.6438852,51.514061,Cork,Schull,Ireland,Discovery Point
Alternative Visions,http://alternativevisions.co.uk,3.53873E+11,-7.969439296,55.18327471,Donegal,Kill,Ireland,"Learning,Museums and Attraction,Photography"
Altidore Castle,https://www.ihh.ie/index.cfm/houses/house/name/Altidore%20Castle,3.53878E+11,-6.1381173,53.1106151,Wicklow,,Ireland,"Historic Houses and Castle,Castle"
AMOC Jewellery,http://www.amoc.ie,35312871515,-6.0625099,53.1443074,Wicklow,Greystones,Ireland,"Craft,Shopping,Food Shops,Shopping Centres and Department Store,Learning,Museums and Attraction"
Anam Cara Writer's and Artist's Retreat,http://www.anamcararetreat.com,3532774441,-9.9557065,51.6842538,Cork,Eyeries,Ireland,"Learning,Museums and Attraction"
An Blascaod M?r,,,-10.536,52.0895,Kerry,,Ireland,Discovery Point
An Ch?ibh Bheag (Cloghmore Pier),,,-9.9472967,53.880075,Mayo,,Ireland,Embarkation Point
An Chonair (Conor Pass),,,-10.207747,52.181771,Kerry,Dingle Peninsula,Ireland,Discovery Point
An F?d Dubh (Blacksod Harbour),,,-10.060762,54.098875,Mayo,,Ireland,Embarkation Point
An F?l M?r (Falmore),,,-10.085653,54.09554,Mayo,,Ireland,Discovery Point
Angela Woulfe Gallery,http://www.angelawoulfegallery.com/,35361310164,-8.6288578,52.6591346,Limerick,,Ireland,"Craft,Shopping,Art Gallery"
Angling Services Ireland,http://www.anglingservicesireland.com,3.53866E+11,-8.2868153,53.9835159,Roscommon,Boyle,Ireland,"Fishing,Angling,Learning,Museums and Attraction"
An Grianan,http://www.an-grianan.ie,3.5342E+11,-6.265664799,53.75562207,Louth,Termonfeckin,Republic of Ireland,"Cooking,Cookery,Learning,Museums and Attraction"
An Grianan Adult Education College,https://www.an-grianan.ie,3.5342E+11,-6.264549,53.754937,Louth,Drogheda,Republic of Ireland,"Craft,Shopping,Learning,Museums and Attraction"
Annagh Church,,3.53667E+11,-9.742521,52.248165,Kerry,Blennerville,Republic of Ireland,"Church Abbey,Monastery,Churches,Abbeys and Monastery"
Annaharvey Farm Cookery School,http://www.annaharveyfarm.ie,3.53579E+11,-7.398389,53.249783,Offaly,,Ireland,"Cooking,Cookery,Learning,Museums and Attraction"
Annemarie Bourke Studio Gallery,https://www.annemariebourke.com/,35361410510,-8.6293925,52.6613024,Limerick,,Ireland,"Craft,Shopping,Art Gallery"
Annes Grove Miniature Castle,https://www.irishlandmark.com/property/annes-grove-miniature-castle,35316704733,-8.4757718,52.2002048,Cork,,Ireland,"Historic Houses and Castle,Castle"
Annestown Green Coast Beach 2019,,+353(0)51875823,-7.31236015,52.13610721,Waterford,Annestown,Republic of Ireland,Beach
An tSean Bheairic,http://www.falcarraghvisitorcentre.com,3.53749E+11,-8.100882,55.137024,Donegal,Falcarragh,Ireland,Museums and Attraction
"Applied Language Centre, University College Dublin",http://www.ucd.ie/alc,+353(0)17167900,-6.220299,53.306327,Dublin,Belfield,Republic of Ireland,"Learning,Museums and Attraction"
AquaZone at the National Aquatic Centre,http://www.aquazone.ie,+353(0)16464300,-6.370179,53.397004,Dublin,Blanchardstown,Republic of Ireland,Museums and Attraction
Aran Islands - Inisheer - Inis O?rr,,,-9.529072668,53.05716203,Galway,,Republic of Ireland,"Island,Offshore Island"
Aran Islands - Inishmaan - Inis Me?in,,,-9.58965917,53.08469456,Galway,Aran Islands,Republic of Ireland,"Island,Offshore Island"
Aran Islands - Inishmaan - Inis ?rainn,,+353(0)9961263,-9.719242279,53.13713245,Galway,,Republic of Ireland,"Island,Offshore Island"
Arboretum Inspirational Gardens,https://www.arboretum.ie/,3.536E+11,-6.9747303,52.742058,Carlow,Leighlinbridge,Ireland,"Cafe,Food and Drink,Shopping,Shopping Centres and Department Store,Gardening,Nature and Wildlife,Gardens,Garden"
Arbour Hill Cemetery,http://www.heritageireland.ie/en/dublin/arbourhillcemetery/,+353(0)18213021,-6.286436,53.35108,Dublin,,Republic of Ireland,Museums and Attraction
Ardamine Beach,,,-6.226382459,52.64386973,Wexford,Courtown,Republic of Ireland,Beach
Ardara Heritage Centre,http://ardara.ie/tag/heritage-centre,3.53872E+11,-8.4126667,54.762,Donegal,Ardara,Ireland,Museums and Attraction
Ardfert Cathedral,http://www.heritageireland.ie/en/shannon-region/ardfertcathedral,3.53667E+11,-9.781663,52.328601,Kerry,Ardfert,Republic of Ireland,"Church Abbey,Monastery,Churches,Abbeys and Monastery"
Ardgillan Castle and Victorian Gardens,https://ardgillancastle.ie,35318492212,-6.1616584,53.5817894,Dublin,Balbriggan,Ireland,"Historic Houses and Castle,Castle,Gardens,Garden"
Ardgillan Demesne,http://www.facebook.com/ardgillancastle,+353(0)18492212,-6.159029692,53.58716314,Dublin,Balbriggan,Republic of Ireland,"Forest Park,Park and Forest Walk,Walking,National Park,National and Forest Park,Public Park,Nature and Wildlife"
Ardmore Blue Flag Beach 2019,http://blueflagireland.org/,,-7.722228366,51.95218499,Waterford,Ardmore,Ireland,Beach
Ardmore Round Tower And Cathedral,http://roundtowers.org/ardmore/index1.htm,,-7.72603896,51.94868846,Waterford,Ardmore,Republic of Ireland,"Church Abbey,Monastery,Churches,Abbeys and Monastery"
Ardmulchan Church,"http://www.megalithicireland.com/Ardmulchan%20Church,%20Meath.html",,-6.628602,53.6718102,Meath,Kells,Ireland,"Church Abbey,Monastery,Churches,Abbeys and Monastery,Ruins,Historic Houses and Castle"
Ardnahinch Green Coast Beach 2019,,,-8.021149103,51.85370165,Cork,,Ireland,Beach
Ardnamona Woods,http://www.irishtrails.ie/Trail/Ard-na-Mona-Wood/527/,,-8.110547707,54.65340502,Donegal,,Republic of Ireland,"Forest Park,Park and Forest Walk,Walking,National Park,National and Forest Park,Public Park,Nature and Wildlife"
Ards Forest Park,http://www.coillte.ie/site/ards-forest-park/,3.53749E+11,-7.8985031,55.1554989,Donegal,,Ireland,"Forest Park,Park and Forest Walk,Walking,National Park,National and Forest Park,Public Park,Nature and Wildlife"
Arena School of English,http://www.arenaschool.com,+353(0)14789202,-6.265618328,53.34008902,Dublin,Dublin City Area South,Republic of Ireland,"Learning,Museums and Attraction"
Arigna Mining Experience,https://www.arignaminingexperience.ie,3.5372E+11,-8.120751,54.07755,Roscommon,,Ireland,Museums and Attraction
Arkhangel Gallery,http://www.arkhangel-international.com,3536823537,-9.4848106,52.4465153,,Listowel,Ireland,"Craft,Shopping,Art Gallery"
Arklow Green Coast Beach 2019,,,-6.126780942,52.81185983,Wicklow,Arklow,Ireland,Beach
Arklow Maritime Museum,http://www.arklowmaritimeheritage.ie,3.53864E+11,-6.1493991,52.7985048,Wicklow,Ferrybank,Ireland,Museums and Attraction
Arranmore Island (Arainn Mor),,,-8.536290348,54.99633474,Galway,,Republic of Ireland,"Island,Offshore Island"
Arranmore Island-?rainn Mh?r,,+353(0)749520533,-8.520194041,54.98829765,Donegal,,Republic of Ireland,"Island,Offshore Island"
Art and Healing Centre - Art Gallery,http://www.artandhealingcentre.ie,3.53862E+11,-8.130578,52.809988,Tipperary,Nenagh,Ireland,"Craft,Shopping,Learning,Museums and Attraction"
Art at the Park,http://www.artatthepark.net,35361925975,-8.700666,52.992728,Clare,Killanena,Republic of Ireland,"Craft,Shopping,Learning,Museums and Attraction"
Arthur Griffith,http://www.visitdublin.com,+353(0)16057700,-6.254252,53.340122,Dublin,,Republic of Ireland,Public Sculpture
Arthur Wellesley Duke Of Wellington,http://www.visitdublin.com,+353(0)16057700,-6.303231,53.349086,Dublin,Phoenix Park,Republic of Ireland,Public Sculpture
Art tours incl. Book of Kells: Art Impressions,http://www.artimpressions.ie,+353(0)833756668,-6.259270059,53.34738308,Dublin,,Ireland,"Craft,Shopping,Learning,Museums and Attraction"
Artzone,http://www.artzone.ie,+353(0)14990614,-6.301149,53.317293,Dublin,,Republic of Ireland,"Craft,Shopping,Learning,Museums and Attraction"
Asana School of English,http://www.asanaireland.com,3.53669E+11,-10.212643,51.950922,Kerry,Cahersiveen,Republic of Ireland,"Learning,Museums and Attraction"
Ash Hill House,http://www.ashhill.com,3536398035,-8.584533514,52.39540627,Limerick,Kilmallock,Ireland,"Historic Houses and Castle,Castle"
Ashlawn Garden Centre,https://www.facebook.com/AshlawnGardenCentre,3.536E+11,-6.938976,52.683384,Carlow,Donore,Republic of Ireland,"Gardening,Nature and Wildlife,Gardens,Garden"
Askeaton Castle and Franciscan Friary,http://monastic.ie/history/askeaton-franciscan-friary,35361392149,-8.975399,52.603892,Limerick,Askeaton,Republic of Ireland,"Church Abbey,Monastery,Churches,Abbeys and Monastery"
ATC Language & Travel,http://www.atclanguageschools.com,3.53113E+11,-6.095557669,53.19857899,Wicklow,Bray,Ireland,"Learning,Museums and Attraction"
ATC Language & Travel,http://www.atclanguageschools.com,35312845512,-6.263304565,53.34124579,Dublin,,Ireland,"Learning,Museums and Attraction"
Athassel Abbey,http://www.cashel.ie,,-7.97276418,52.47548593,Tipperary,Corbally,Republic of Ireland,"Church Abbey,Monastery,Churches,Abbeys and Monastery,Ruins,Historic Houses and Castle"
Athenry Arts and Heritage Centre,http://www.athenryheritagecentre.com,35391844661,-8.746329,53.2995236,Galway,Athenry,Ireland,Museums and Attraction
Athenry Castle,https://www.heritageireland.ie/en/west/athenrycastle,35391844797,-8.7446178,53.2999964,Galway,Athenry,Ireland,"Historic Houses and Castle,Castle"
Athlone Castle,http://www.athlonecastle.ie,3.53906E+11,-7.942730642,53.42308182,Westmeath,Athlone,Republic of Ireland,"Cafe,Food and Drink,Historic Houses and Castle,Museums and Attraction,Castle"
Athlumney Castle,http://www.discoverboynevalley.ie/boyne-valley-drive/heritage-sites/athlumney-castle-navan,3.5342E+11,-6.675048,53.650359,Meath,Navan,Republic of Ireland,"Historic Houses and Castle,Castle"
Athy Heritage Centre & Museum,http://www.athyheritagecentre-museum.ie,3.53599E+11,-6.9832541,52.9916784,Kildare,Athy,Ireland,Museums and Attraction
Atlantic Language Galway,http://www.atlanticlanguage.com,35391566053,-9.046042,53.27404,Galway,Galway City,Republic of Ireland,"Learning,Museums and Attraction"
Atlantic School of English & Active Leisure,http://www.atlantic-english.com,3532828943,-9.545477822,51.52694288,Cork,Schull,Republic of Ireland,"Learning,Museums and Attraction"
Atlantic Sheepdogs,https://www.facebook.com/atlanticsheepdogs,3.53857E+11,-8.545451,54.390125,Sligo,Grange,Ireland,"Learning,Museums and Attraction"
Atlas Language School,http://www.atlaslanguageschool.com,+353(0)14782845,-6.264600766,53.33027427,Dublin,,Republic of Ireland,"Learning,Museums and Attraction"
Aughnanure Castle,http://www.heritageireland.ie/en/west/aughnanurecastle,35391552214,-9.2757515,53.4187829,Galway,Oughterard,Ireland,"Historic Houses and Castle,Castle"
Aughris Head,,,-8.7570235,54.268943,Sligo,Templeboy,Ireland,Discovery Point
Augustinian Abbey Adare,http://www.ireland.anglican.org,35361396227,-8.784585,52.567928,Limerick,Adare,Republic of Ireland,"Church Abbey,Monastery,Churches,Abbeys and Monastery"
Augustinian Abbey Lorrha,"http://www.megalithicireland.com/Lorrha%20Augustinian%20Abbey,%20Tipperary.html",,-8.121999159,53.08941392,Tipperary,Lorrha,Republic of Ireland,"Church Abbey,Monastery,Churches,Abbeys and Monastery"
Aultaghreagh Cottage Garden,http://www.aultaghreaghcottagegarden.com,3.53239E+11,-9.083913637,51.77792113,Cork,Dunmanway,Republic of Ireland,"Gardening,Nature and Wildlife,Gardens,Garden"
Avanti Language Institute,http://www.avantilanguage.com,35345881661,-6.6639825,53.2178696,Kildare,Naas,Ireland,"Learning,Museums and Attraction"
Avoca Painting School,http://avocapaintingschool.com,35340235555,-6.227528,52.880018,Wicklow,Avoca,Ireland,"Craft,Shopping,Learning,Museums and Attraction"
Avoca Studio Gallery,https://avocagallery.com/welcome-to-the-avoca-painting-school/,35340235555,-6.2272958,52.8800149,Wicklow,,Ireland,"Craft,Shopping,Art Gallery"
Avondale Forest Park - Centenary Trail,http://www.coillteoutdoors.ie,,-6.226537734,52.916479,Wicklow,Rathdrum,Ireland,"Cycling,Forest Park,Park and Forest Walk,Walking,Natural Landscape"
Avondale House and Forest Park,https://visitwicklow.ie/item/avondale-house-forest-park,35340446111,-6.2226009,52.9117801,Wicklow,,Ireland,"Historic Houses and Castle,Castle"
Away to Me Sheepdog Demonstrations,https://awaytome.ie/,3.53872E+11,-8.7820907,54.6671713,Donegal,Malin Beg,Ireland,"Activity Operator,Boat,Tour,Visitor Farm"
Baginbun Beach,,,-6.929462,52.123762,Wexford,,Republic of Ireland,Beach
Bahana Forest,http://www.coillteoutdoors.ie/,,-6.921629778,52.50760317,Carlow,,Republic of Ireland,"Forest Park,Park and Forest Walk,Walking,National Park,National and Forest Park,Public Park,Nature and Wildlife"
Bainnlann Chul na nGabhar Art Gallery,https://www.facebook.com/bainnlann/,3535841933,-7.6247721,52.0897542,Waterford,Dungarvan,Ireland,"Craft,Shopping,Art Gallery"
Baking Academy of Ireland,http://www.bakingacademyireland.ie,+00353(0)18451214,-6.379362,53.357996,Dublin,Palmerstown,Republic of Ireland,"Cooking,Cookery,Learning,Museums and Attraction"
B?al B?n Green Coast Beach 2019,,,-10.39754893,52.17774998,Kerry,Ballyferriter,Ireland,Beach
Balbriggan Beach,,+353(0)18400077,-6.182411859,53.61201653,Dublin,Swords,Republic of Ireland,Beach
Ballaghaderreen Cathedral,http://www.achonrydiocese.org,3.5395E+11,-8.577979,53.903133,Roscommon,Ballaghaderreen,Republic of Ireland,"Church Abbey,Monastery,Churches,Abbeys and Monastery"
Ballaghmore Castle,"http://www.megalithicireland.com/Ballaghmore%20Castle,%20Laois.html",35350521453,-7.707129,52.9597586,Laois,,Ireland,"Historic Houses and Castle,Castle"
Ballagh Studio,http://www.rosharvey.com/,3.53749E+11,-7.2898999,55.3145175,Donegal,Ballagh,Ireland,"Craft,Shopping,Art Gallery"
Ballard Organic Farm,http://www.ballardorganicfarm.ie,3.53873E+11,-7.5560912,53.355812,Westmeath,Kilbeggan,Ireland,Visitor Farm
Ballinafad Castle,http://www.megalithicireland.com/Ballinafad%20Castle.html,,-8.335818,54.0259909,Sligo,Ballinafad,Ireland,"Historic Houses and Castle,Castle"
Ballinamuck Visitor Centre,http://visitlongford.ie/listings/ballinamuck-battlefield-visitors-centre,3.5388E+11,-7.716717,53.865444,Longford,Ballinamuck,Ireland,Museums and Attraction
Ballina Quay,,,-9.1378596,54.132133,Mayo,Ballina,Ireland,Discovery Point
Ballindoon Abbey,http://www.megalithicireland.com/Ballindoon%20Priory.html,3.53719E+11,-8.323266467,54.08492133,Sligo,Ballymote,Republic of Ireland,"Church Abbey,Monastery,Churches,Abbeys and Monastery"
Ballineanig - Ursula Tramski Ceramics,http://www.smashingpots.com,3.53669E+11,-10.3926372,52.1626132,Kerry,Ballyferriter,Ireland,"Craft,Shopping,Learning,Museums and Attraction"
Ballinesker Blue Flag Beach 2019,http://www.blueflagireland.org/,,-6.362396575,52.38850493,Wexford,Castlebridge,Ireland,Beach
Ballinskelligs Beach Blue Flag and Green Coast Awards 2019,http://www.blueflag.org,+353(0)646631633,-10.2715711,51.82241401,Kerry,Ballinskelligs,Republic of Ireland,Beach
Ballintubber Abbey and The Celtic Furrow,http://www.ballintubberabbey.ie,3.53949E+11,-9.2827569,53.7567222,Mayo,Ballintubber,Ireland,"Church Abbey,Monastery,Churches,Abbeys and Monastery"
Ballinvillon Gardens,https://www.facebook.com/pages/category/Public-Garden/Ballinvillon-Gardens-1592140567737035/,3532761451,-9.46626,51.633693,Cork,Durrus,Ireland,"Gardening,Nature and Wildlife,Gardens,Garden"
Ballinvirick House,https://cappaghasenseofplace.com/historical-houses/ballinvirick-house,3.53873E+11,-8.89948176,52.57411614,Limerick,Askeaton,Ireland,"Historic Houses and Castle,Castle"
Ballitore Library & Quaker Museum,http://www.kildare.ie/Library/Library/BallitoreLibrary,3.53599E+11,-6.814924,53.009722,Kildare,Ballitore,Ireland,Museums and Attraction
Ballyalla Lake Green Coast Award 2019,http://cleancoastsireland.org,,-8.971205075,52.87699938,Clare,Ennis,Ireland,Beach
Ballybeg Augustinian Priory,,3.53214E+11,-8.6698297,52.2195337,Cork,,Ireland,"Church Abbey,Monastery,Churches,Abbeys and Monastery"
"Ballyboy House, Garden & Woodlands",http://ballyboyhouse.com/gardens.html,+35352 7465297,-7.9712781,52.2823963,Tipperary,Clogheen,Ireland,"Gardening,Nature and Wildlife,Gardens,Garden"
Ballybunion Beach,,,-9.6769166,52.511304,Kerry,Ballybunion,Ireland,Discovery Point
Ballybunion North Blue flag Beach 2019,,+353(0)667121288,-9.681072438,52.50507167,Kerry,Ballybunion,Republic of Ireland,Beach
Ballybunion South Blue Flag Beach 2019,http://www.blueflag.org,+353(0)667121288,-9.684991112,52.49085217,Kerry,Ballybunion,Republic of Ireland,Beach
Ballycarbery Castle,https://www.theringofkerry.com/ballycarbery-castle,3.53647E+11,-10.2586267,51.9489036,Kerry,Cahersiveen,Ireland,"Historic Houses and Castle,Castle,Ruins"
Ballycuggeran Beach,http://www.waterwaysireland.org/see-and-do/9/ballycuggeran-blue-flag-lakeside-beach,+353(0)656821616,-8.471177382,52.84138229,Clare,,Republic of Ireland,Beach
Ballyhack Castle,http://www.heritageireland.ie/en/south-east/ballyhackcastle,35351389468,-6.9673172,52.2459479,Wexford,Ballyhack,Ireland,"Historic Houses and Castle,Castle,Ruins"
Ballyhannon Castle,http://www.rentanirishcastle.com/history,3.53657E+11,-8.9083002,52.8014182,Clare,Quin,Ireland,"Historic Houses and Castle,Castle"
Ballyhealy Beach Green Coast Award 2019,http://www.greencoast.org/gca,,-6.540214978,52.18513747,Wexford,,Ireland,Beach
Ballyheige Beach,,,-9.8356122,52.388788,Kerry,Ballyheigue,Ireland,Discovery Point
Ballyheigue Blue Flag Beach 2019,http://www.blueflag.org,+353(0)667121288,-9.833327545,52.37473868,Kerry,Ballyheigue,Republic of Ireland,Beach
Ballyhernan Beach Green Coast 2019,http://www.beachawards.ie,,-7.699338893,55.20082216,Donegal,,Republic of Ireland,"Beach,Swimming,Swimming Pools and Water Park,Venue,Walking"
Ballyhist Garden,https://tipperary.com/listings/ballyhist-garden/,3.53527E+11,-7.872028223,52.31529252,Tipperary,Ardfinnan,Republic of Ireland,"Gardening,Nature and Wildlife,Gardens,Garden"
Ballyhoura Mountain Bike Trail Network,http://www.visitballyhoura.com,+353(0)6391300,-8.469557294,52.35999943,Limerick,,Republic of Ireland,"Forest Park,Park and Forest Walk,Walking,National Park,National and Forest Park,Public Park,Nature and Wildlife"
Ballyhugh Art And Culture Centre Ceili Dance Workshops,http://homepage.eircom.net/~ballyhugh,3.535E+11,-7.58401977,54.11649607,Cavan,Ballyconnell,Republic of Ireland,"Learning,Museums and Attraction"
Ballyhugh Art and Culture Centre Painting,http://homepage.eircom.net/~ballyhugh,3.535E+11,-7.583964736,54.11607379,Cavan,Ballyconnell,Republic of Ireland,"Craft,Shopping,Learning,Museums and Attraction"
Ballykeefe Distillery,http://ballykeefedistillery.ie,3.53877E+11,-7.37639638,52.60189843,Kilkenny,,Republic of Ireland,"Museums and Attraction,Tour"
Ballykeele Garden,https://www.ballinkeele.ie/,3.53539E+11,-6.4868421,52.4432855,Wexford,,Ireland,"Gardening,Nature and Wildlife,Gardens,Garden"
Ballykilcavan Brewery,http://www.ballykilcavan.com,3.53863E+11,-7.1157709,53.0179718,Laois,Stradbally,Ireland,"Museums and Attraction,Tour,Visitor Farm"
Ballyknocken Cookery School,http://www.thecookeryschool.ie,35340444627,-6.1431625,52.9769314,Wicklow,Glenealy,Ireland,"Cooking,Cookery,Learning,Museums and Attraction,Local Produce,Food and Drink,Restaurant"
Ballylarkin Abbey Freshford - Ballylarkin Church,"http://www.megalithicireland.com/Ballylarkin%20Church,%20Kilkenny.html",,-7.427511,52.722887,,,Ireland,"Church Abbey,Monastery,Churches,Abbeys and Monastery"
Ballyloughan Castle,http://www.megalithicireland.com/Ballyloughan%20Castle.html,,-6.8956127,52.6729963,Carlow,,Ireland,"Historic Houses and Castle,Castle"
Ballymacool Town Park,http://www.donegalcoco.ie,+353(0)749194297,-7.736715873,54.9511565,Donegal,Letterkenny,Ireland,Natural Landscape
Ballymalis Castle,https://www.inspirock.com/ireland/killarney/ballymalis-castle-a58204201,3.53647E+11,-9.6924377,52.0845424,Kerry,,Ireland,"Historic Houses and Castle,Castle"
Ballymaloe Cookery School,http://www.cookingisfun.ie,3.53215E+11,-8.0195295,51.85385193,Cork,Shanagarry,Republic of Ireland,"Cooking,Cookery,Learning,Museums and Attraction"
Ballymaloe Cookery School Garden,http://www.cookingisfun.ie/,3.53215E+11,-8.075021,51.865083,Cork,Shanagarry,Ireland,"Gardening,Nature and Wildlife,Gardens,Garden"
Ballymastocker Strand,,,-7.5952649,55.183983,Donegal,Portsalon,Ireland,Discovery Point
Ballymoney North Beach Blue Flag Beach 2019,,,-6.203500032,52.67669255,Wexford,Ballymoney,Ireland,Beach
Ballymoon Castle,http://carlowtourism.com/ballymoon-castle-2,,-6.9062967,52.700405,Carlow,,Ireland,"Historic Houses and Castle,Castle,Ruins"
Ballymore Historic Features,http://www.ballymorehistoricfeatures.com,3.53868E+11,-6.374547,52.598346,Wexford,Ballymore,Republic of Ireland,Museums and Attraction
Ballymorris Pottery,http://ballymorrispottery.ie,35361357118,-8.77213,52.6906707,Clare,Cratloe,Ireland,"Craft,Shopping,Food Shops,Shopping Centres and Department Store,Learning,Museums and Attraction"
Ballymote Castle,http://www.megalithicireland.com/Ballymote%20Castle.html,,-8.5197245,54.087625,Sligo,Ballymote,Ireland,"Historic Houses and Castle,Castle"
Ballymurrin Quaker Farmstead,http://www.ballymurrinquakerfarmstead.eu,35340448206,-6.1066529,52.9341601,Wicklow,,Ireland,"Historic Houses and Castle,Castle"
Ballynacarriga Castle,http://www.castles.ancientireland.org/ballinacarriga/index.htm,3.53239E+11,-9.031648,51.705571,Cork,Bandon,Ireland,"Historic Houses and Castle,Castle"
Ballynacourty Gardens,https://www.limerick.ie/discover/eat-see-do/nature-wildlife/gardens/ballynacourty-gardens,35361396409,-8.935327,52.643399,Limerick,Ballysteen,Republic of Ireland,"Gardening,Nature and Wildlife,Gardens,Garden"
Ballynahinch Castle Hotel and Gardens,https://www.ballynahinch-castle.com,3539531006,-9.862961,53.460188,Galway,Recess,Ireland,"Gardening,Nature and Wildlife,Gardens,Garden"
Ballynahinch Castle Hotel Fly Fishing Tuition,http://www.ballynahinch-castle.com,3539531006,-9.862353,53.460213,Galway,Ballynahinch,Republic of Ireland,"Learning,Museums and Attraction"
Ballynahow Castle,http://irishantiquities.bravehost.com/tipperary/ballynahow/ballynahow.html,,-7.8785802,52.6930716,Tipperary,,Ireland,"Historic Houses and Castle,Castle"
Ballynatray Gardens,http://www.ballynatray.com,3532497463,-7.887014,51.99547,Cork,Youghal,Ireland,"Gardening,Nature and Wildlife,Gardens,Garden"
Ballyquin Green Coast Beaches 2019,,,-7.70269457,51.97130192,Waterford,Ardmore,Ireland,Beach
Ballyrafton Wood,http://www.coillteoutdoors.ie,,-7.229853781,52.72168866,Kilkenny,Ballyfoyle,Republic of Ireland,"Forest Park,Park and Forest Walk,Walking,National Park,National and Forest Park,Public Park,Nature and Wildlife"
Ballyrisode Green Coast Beach 2019,,,-9.667880127,51.51648225,Cork,Toormore,Ireland,Beach
Ballysaggartmore Towers,https://www.theirishplace.com/heritage/history-ballysaggartmore-towers,,-7.9631741,52.1472156,Waterford,,Ireland,"Historic Houses and Castle,Castle"
Ballyscanlon Forest,http://www.coillteoutdoors.ie,,-7.206163681,52.17425471,Waterford,Fenor,Republic of Ireland,"Forest Park,Park and Forest Walk,Walking,National Park,National and Forest Park,Public Park,Nature and Wildlife"
Ballytoughey Loom,http://www.clareislandhandweaver.com,3539825800,-9.988141954,53.79245548,Mayo,Clare Island,Republic of Ireland,"Craft,Shopping,Food Shops,Shopping Centres and Department Store,Learning,Museums and Attraction"
Ballyvaughan Pier,,,-9.153682,53.119533,Clare,Ballyvaughan,Ireland,Discovery Point
Balrath Wood,,+353(0)18358022,-6.952315923,53.70557053,Meath,Balrath,Republic of Ireland,"Forest Park,Park and Forest Walk,Walking,National Park,National and Forest Park,Public Park,Nature and Wildlife"
Baltimore Harbour,,,-9.3745726,51.482555,Cork,Baltimore,Ireland,Embarkation Point
Baltinglass Abbey,http://visitwicklow.ie/attractions/baltinglass-abbey,,-6.7102325,52.9439747,Wicklow,Baltinglass,Ireland,"Church Abbey,Monastery,Churches,Abbeys and Monastery,Ruins,Historic Houses and Castle"
Banna Blue Flag Beach 2019,http://www.blueflag.org,+353(0)667121288,-9.837115441,52.33613261,Kerry,Ardfert,Republic of Ireland,Beach
Banna Strand,,,-9.8345768,52.338905,Kerry,Ardfert,Ireland,Discovery Point
Bansha Wood,http://www.coillte.ie,+353(0)527441453,-8.064347932,52.44829852,Tipperary,Bansha,Republic of Ireland,"Forest Park,Park and Forest Walk,Walking,National Park,National and Forest Park,Public Park,Nature and Wildlife"
Bantry Harbour,,,-9.4615996,51.679697,Cork,Bantry,Ireland,Embarkation Point
Bantry House & Garden,http://www.bantryhouse.com/the-house.html,3532750047,-9.4645065,51.6774722,Cork,Bantry,Ireland,"Historic Houses and Castle,Castle,Gardens,Garden"
Barley Cove,,,-9.76928,51.468821,Cork,Crookhaven,Ireland,Discovery Point
Barleycove Beach Awarded Blue Flag 2019,http://www.blueflagireland.org/,+353(0)2821489,-9.7756123,51.46938786,Cork,Goleen,Republic of Ireland,"Beach,Swimming,Swimming Pools and Water Park,Venue"
Barnageara Beach,,+353(0)18400077,-6.148359036,53.58666584,Dublin,,Republic of Ireland,Beach
Barry Doyle Design Jewellers,http://www.barrydoyledesign.com,35316172838,-6.2633661,53.3425059,Dublin,,Ireland,"Craft,Shopping,Food Shops,Shopping Centres and Department Store,Learning,Museums and Attraction"
Basket Barn,http://kathleenmccormickbaskets.com,3.53869E+11,-6.9755865,53.4455553,Kildare,,Ireland,"Craft,Shopping,Food Shops,Shopping Centres and Department Store,Learning,Museums and Attraction"
Battle of the Boyne Visitor Centre,http://www.battleoftheboyne.ie,3.5342E+11,-6.423349515,53.72338268,Meath,Oldbridge,Republic of Ireland,Museums and Attraction
B? Bhaile U? Thiarn?in (Ballyhiernan Bay),,,-7.7277017,55.247075,Donegal,,Ireland,Discovery Point
Beale Strand,,,-9.6312144,52.573972,Kerry,Ballybunion,Ireland,Discovery Point
Bear Essentials,http://www.bearessentials.ie,3.53878E+11,-7.7100841,54.125789,Cavan,Bawnboy,Ireland,"Craft,Shopping,Food Shops,Learning,Museums and Attraction"
Beaulieu House and Gardens,http://beaulieuhouse.ie,3.5342E+11,-6.2935996,53.7281596,Louth,Cross,Ireland,"Historic Houses and Castle,Castle"
Beaulieu House Gardens,http://www.beaulieuhouse.ie,3.5342E+11,-6.2935996,53.7281596,Louth,Cross,Ireland,"Gardening,Nature and Wildlife,Gardens,Garden"
Bective Abbey,http://monastic.ie/history/bective-cistercian-abbey,,-6.7028943,53.5824741,Meath,Ballina,Ireland,"Church Abbey,Monastery,Churches,Abbeys and Monastery"
Beechdale Plantsplus Garden Centre,http://www.beechdale.ie,3.53539E+11,-6.6880464,52.4607195,Wexford,Enniscorthy,Ireland,"Gardening,Nature and Wildlife,Gardens,Garden"
Beechmount Art Studio,http://www.beechmountartstudio.com,3.53879E+11,-8.853538857,53.38246314,Galway,Turloughmore,Ireland,"Craft,Shopping,Learning,Museums and Attraction"
Belcarra Eviction Cottage,http://www.museumsofmayo.com/eviction-cottage/eviction-cottage-belcarra.html,3.53879E+11,-9.2190281,53.8129006,Mayo,Castlebar,Ireland,Museums and Attraction
Belleek Woods,http://www.northmayo.ie/belleek-woods/,,-9.145716487,54.13321829,Mayo,Ballina,Ireland,"Forest Park,Park and Forest Walk,Walking,National Park,National and Forest Park,Public Park,Nature and Wildlife"
Bellfield House Gardens,http://www.angelajupe.ie,35350547766,-7.9319548,52.9962592,Offaly,Belfield,Ireland,"Gardening,Nature and Wildlife,Gardens,Garden"
Belturbet Railway Station,http://www.discoverbelturbet.ie/about-belturbet/belturbet-railway-station,3.535E+11,-7.4422836,54.0976819,Cavan,Belturbet,Ireland,Museums and Attraction
Belvedere House Gardens and Park,http://www.belvedere-house.ie,3.53449E+11,-7.369202,53.477197,Westmeath,Mullingar,Ireland,Historic Houses and Castle
Belvedere House Gardens & Park,http://www.belvedere-house.ie,3.53449E+11,-7.369202,53.477197,Westmeath,Mullingar,Ireland,"Cafe,Food and Drink,Historic Houses and Castle,Gardening,Nature and Wildlife,Gardens,Garden,Walking"
Benbulben,,,-8.4667,54.3667,Sligo,,Ireland,Natural Landscape
Benbulben Pottery,http://davemcloughlinceramics.com,3.53862E+11,-8.4833994,54.3193646,Sligo,Rathcormac,Ireland,"Craft,Shopping,Food Shops,Shopping Centres and Department Store,Learning,Museums and Attraction"
Beoir Chorca Dhuibhne - West Kerry Brewery,http://www.westkerrybrewery.ie,3.53877E+11,-10.38642278,52.17047361,Kerry,,Ireland,Museums and Attraction
Bere Island,http://www.bereisland.net,+353(0)2775099,-9.86344539,51.63047154,Cork,,Republic of Ireland,"Island,Offshore Island"
Bere Island - East End Pier,,,-9.819922,51.634348,Cork,Bere Island,Ireland,Discovery Point
Bere Island Heritage Centre,http://www.bereisland.net/activities/heritage-centre,3532775956,-9.8800912,51.6352472,Cork,,Ireland,Museums and Attraction
Bere Island (West End Pier),,,-9.866889,51.6332349,Cork,,Ireland,Discovery Point
Berkeley Forest House,http://berkeleyforesthouse.com,35351421361,-6.873299053,52.41402524,Wexford,New Ross,Republic of Ireland,"Historic Houses and Castle,Castle"
Berlitz Language Centre,https://www.facebook.com/BerlitzDublin,+353(0)16449742,-6.250585,53.341729,Dublin,,Republic of Ireland,"Learning,Museums and Attraction"
Bernard McGlinchey Town Park,http://www.donegalcoco.ie,+353(0)749153900,-7.736715873,54.9511565,Donegal,Letterkenny,Ireland,Natural Landscape
Berry Lodge Cookery School,http://www.berrylodge.com,3.53657E+11,-9.430075,52.8304448,Clare,,Ireland,"Cooking,Cookery,Learning,Museums and Attraction"
Bertra Beach,http://www.blueflagireland.org/,+353(0)14002202,-9.63699002,53.77948047,Mayo,Murrisk,Republic of Ireland,Beach
B? Fhionntr? (Fintragh Bay),,,-8.4882206,54.635294,Donegal,,Ireland,Discovery Point
Big Smoke Writing Factory,http://www.bigsmokewritingfactory.com/index.php,+353(0)879766253,-6.256189657,53.33408978,Dublin,,Ireland,"Learning,Museums and Attraction"
Birr Castle Demesne & Historic Science Centre,https://www.birrcastle.com,3.53579E+11,-7.9143201,53.0967043,Offaly,Birr,Ireland,"Historic Houses and Castle,Castle,Gardening,Nature and Wildlife"
Birr Castle Gardens,http://www.birrcastle.com,3.53579E+11,-7.9156832,53.0973006,Offaly,Birr,Ireland,"Gardening,Nature and Wildlife,Gardens,Garden"
Bishop Lucey Park,,+353(0)214924026,-8.47471,51.8972,Cork,Cork City,Republic of Ireland,"Forest Park,Park and Forest Walk,Walking,National Park,National and Forest Park,Public Park,Nature and Wildlife"
Bishops Palace Limerick Civic Trust,http://www.limerickcivictrust.ie,35361313399,-8.625267,52.670433,Limerick,,Republic of Ireland,"Historic Houses and Castle,Castle"
Bishop's Quarter Green Coast Awards 2019,http://www.greencoast.org/gca,,-9.129042808,53.12729336,Clare,Ballyvaughan,Ireland,Beach
Black Abbey,http://visitkilkenny.ie/black_abbey,,-7.257644,52.653965,Kilkenny,Kilkenny City,Republic of Ireland,"Church Abbey,Monastery,Churches,Abbeys and Monastery"
Blackbird Gallery,http://www.theblackbirdgallery.ie,+353(0)877843015,-7.249860982,52.64956841,Kilkenny,Kilkenny City,Republic of Ireland,"Craft,Shopping,Art Gallery"
Black Castle,http://carlowtourism.com/black-castle-2,,-6.97769,52.73621,Carlow,Leighlinbridge,Ireland,"Historic Houses and Castle,Castle,Ruins"
Black Castle Wicklow,"http://www.megalithicireland.com/Black%20Castle,%20Wicklow.html",,-6.030845,52.9811225,Wicklow,,Ireland,"Historic Houses and Castle,Castle,Ruins"
Black Church Print Studio,http://www.print.ie,+353(0)16773629,-6.264056,53.345635,Dublin,,Republic of Ireland,"Craft,Shopping,Learning,Museums and Attraction"
Black Donkey Brewing,http://BlackDonkeyBeer.com,3.5395E+11,-8.6406195,53.74447158,Roscommon,Ballinlough,Republic of Ireland,Museums and Attraction
Blackrock Beach,http://facebook.com/visitblackrock/,+353(0)872077193,-6.366831,53.960735,Louth,Blackrock,Ireland,Beach
Blackrock Boathouse,http://www.visitblackrock.ie/places-of-interest,3.53872E+11,-6.367440639,53.95728611,Louth,Blackrock,Ireland,Museums and Attraction
Blackrock Park,http://www.dlrcoco.ie/parks/blackrock.html,+353(0)12047275,-6.19078,53.3066,Dublin,Blackrock,Ireland,"Forest Park,Park and Forest Walk,Walking,National Park,National and Forest Park,Public Park,Nature and Wildlife"
Blackrock Wetlands,http://visitblackrock.ie,+353(0)872077193,-6.375229765,53.95684318,Louth,Blackrock,Ireland,Natural Landscape
Blacks Brewery,http://blacksbrewery.com/tours,3.53879E+11,-8.515615,51.710963,Cork,Kinsale,Ireland,Museums and Attraction
Blackwater Castle,https://www.blackwatercastle.com/history-and-heritage/history,3532226333,-8.460477,52.170583,Cork,Castletownroche,Ireland,"Historic Houses and Castle,Castle"
Blackwater Open Farm,https://www.blackwateropenfarm.ie/,3.53851E+11,-6.342129,52.42801,Wexford,Blackwater,Ireland,Visitor Farm
Blarney Castle Gardens,https://blarneycastle.ie/pages/the-gardens,3.53214E+11,-8.5684923,51.9313159,Cork,Blarney,Ireland,"Castle,Historic Houses and Castle,Gardening,Nature and Wildlife,Gardens,Garden"
Blarney House and Gardens,https://blarneycastle.ie/,3.53214E+11,-8.5707144,51.9291159,Cork,,Ireland,"Gardening,Nature and Wildlife,Gardens,Garden,Walking"
Blarney House & Gardens,http://www.blarneycastle.ie,3.53214E+11,-8.5717676,51.9268715,Cork,Blarney,Ireland,"Historic Houses and Castle,Castle"
Blennerville Windmill,http://www.blennerville-windmill.ie,3.53667E+11,-9.7368409,52.2568655,Kerry,Blennerville,Ireland,"Museums and Attraction,Bird Watching,Nature and Wildlife"
Blessington Street Basin (Dublin's Secret Garden),http://www.dublincity.ie/main-menu-services-recreation-culture-dublin-city-parks-visit-park/blessington-street-basin,+353(0)16612369,-6.269691598,53.35722262,Dublin,Dublin City,Republic of Ireland,"Gardening,Nature and Wildlife,Gardens,Garden"
BLOCK T,http://www.blockt.ie,+353(0)15351014,-6.2794985,53.3475357,Dublin,,Republic of Ireland,"Craft,Shopping,Learning,Museums and Attraction"
Blue Egg Gallery,http://www.blueegggallery.ie/,,-6.464646481,52.33936431,Wexford,Wexford Town,Ireland,"Craft,Shopping,Art Gallery"
Blue Pool,,,-9.548521,51.748777,Cork,,Republic of Ireland,Discovery Point
B? na Scealg (Ballinskelligs Bay),,,-10.27351,51.820965,Kerry,Ballinskelligs,Ireland,Discovery Point
Bodenstown Graveyard,,,-6.6651887,53.2660878,Kildare,,Ireland,"Museums and Attraction,Ruins,Historic Houses and Castle"
Bog of Allen Nature Centre,http://www.ipcc.ie,35345860133,-6.949689016,53.2707245,Kildare,Rathangan,Republic of Ireland,Museums and Attraction
Bombyx Mori ? Felt & Silk Art,http://bombyxmorifeltsilk.weebly.com,3.5391E+11,-8.356105736,53.07105019,Galway,Ballinasloe,Ireland,"Craft,Shopping,Learning,Museums and Attraction"
Bonane Heritage Park,http://www.bonaneheritagepark.com,3.53858E+11,-9.5203851,51.8295633,Kerry,Bonane,Ireland,Museums and Attraction
Booley Bay Beach Green Coast Awards 2019,http://www.greencoast.org/gca,,-6.905515775,52.20114764,Wexford,Duncannon,Ireland,Beach
Borris House,http://www.borrishouse.com,3.536E+11,-6.9289923,52.5988892,Carlow,Borris,Ireland,"Historic Houses and Castle,Castle"
Bothan Scoir,https://www.inspirock.com/ireland/cashel/an-bothan-scoir-a110782273,3.53869E+11,-7.880471,52.5127828,Tipperary,Cashel,Ireland,Museums and Attraction
Bourn Vincent Gallery,https://ulsites.ul.ie/visualarts/current-and-upcoming-events,35361333644,-8.573732,52.6744919,Limerick,,Ireland,"Craft,Shopping,Art Gallery"
Boyle Abbey,http://www.heritageireland.ie/en/west/boyleabbey,3.5372E+11,-8.2970185,53.9735204,Roscommon,Boyle,Ireland,"Church Abbey,Monastery,Churches,Abbeys and Monastery"
Bramber Studios,http://www.bramberstudio.com,3.53051E+11,-7.9417937,53.0081059,Offaly,Shinrone,Ireland,"Craft,Shopping,Learning,Museums and Attraction"
Bram Stoker?s Castle Dracula Experience Dublin,http://www.CastleDracula.ie,+353(0)18512151,-6.229030364,53.36303247,Dublin,Clontarf,Ireland,Museums and Attraction
Bray Head,,,-10.39667,51.891958,Kerry,Valentia Island,Ireland,Discovery Point
Bray South Promenade Beach Blue Flag Awards 2019,http://cleancoastsireland.org,,-6.098617902,53.20669243,,,Ireland,Beach
Breda Haugh Jeweller Designer,http://www.bredahaugh.com,+353(0)16705738,-6.240096403,53.34193086,Dublin,,Ireland,"Craft,Shopping,Learning,Museums and Attraction"
Brian Bor? Heritage Centre,http://www.discoverkillaloe.ie/attractions-brian-boru-heritage-centre.php,35361360788,-8.440257,52.807384,Clare,Killaloe,Ireland,Museums and Attraction
Brickfield Park,http://dublincity.ie/main-menu-services-culture-dublin-city-parks-visit-park/brickfield-park,+353(0)12222222,-6.30568,53.3285,Dublin,,Republic of Ireland,"Forest Park,Park and Forest Walk,Walking,National Park,National and Forest Park,Public Park,Nature and Wildlife"
Brideweir Hous,https://www.brideweir.ie,3532536386,-8.1550475,52.0869699,Cork,Conna,Ireland,"Historic Houses and Castle,Castle"
Bridewell Brewery,https://bridewellbrewery.ie,3.53871E+11,-10.02033,53.4872227,Galway,Clifden,Ireland,Museums and Attraction
Bridge Mills Galway Language Centre,http://www.galwaylanguage.com,35391566468,-9.0565047,53.2714383,Galway,,Ireland,"Learning,Museums and Attraction"
Bridges of Ross,,,-9.8680401,52.589981,Clare,,Ireland,Discovery Point
Bridge Street Studios,https://www.bridgestreetstudios.com/,3.53429E+11,-6.402879,54.0094618,Louth,Dundalk,Ireland,"Craft,Shopping,Art Gallery"
Brigit's Garden (Gaird?n Bhr?de),http://www.brigitsgarden.ie,35391550905,-9.212496,53.385307,Galway,,Ireland,"Cafe,Food and Drink,Shopping,Gardening,Nature and Wildlife,Gardens,Garden,Learning,Museums and Attraction,Tour"
Brittas Bay North Beach Blue Flag Beach 2019,http://www.blueflagireland.org/,+353(0)40469117,-6.044586281,52.89580557,Wicklow,Brittas Bay,Republic of Ireland,Beach
Brittas Bay South Beach Blue Flag Beach 2019,http://www.blueflagireland.org/,,-6.062782387,52.87529633,Wicklow,Brittas Bay,Ireland,Beach
"Br? na B?inne Visitor Centre (Newgrange, Knowth and Dowth)",http://www.heritageireland.ie/en/midlands-eastcoast/brunaboinnevisitorcentre,3.5342E+11,-6.4492874,53.6935317,Meath,Donore,Ireland,Museums and Attraction
Brushwood Studios Art Gallery,http://www.brushwoodstudios.com,3.53647E+11,-9.8698743,51.8283045,Kerry,Sneem,Ireland,"Craft,Shopping,Art Gallery"
Bullock Castle,http://www.dlrtourism.com,+353(0)12845066,-6.108629,53.285016,Dublin,Dalkey,Republic of Ireland,"Historic Houses and Castle,Castle"
Bundoran Beach,,+353(0)719841350,-8.279608257,54.47824371,Donegal,Bundoran,Republic of Ireland,Beach
Bunmahon Beach,http://www.blueflagireland.org/bonmahon-co-waterford/beach-description.535.html,,-7.366588073,52.13839563,Waterford,Bunmahon,Republic of Ireland,Beach
Bunowen Bay,,,-10.120935,53.407511,Galway,Ballyconneely,Ireland,Discovery Point
Bunratty Castle and Folk Park,https://www.shannonheritage.com/attractions/bunratty-castle,35361360788,-8.8119226,52.6995682,Clare,Bunratty,Ireland,"Historic Houses and Castle,Castle"
Bunratty Castle Gardens,https://www.shannonheritage.com/,35361360788,-8.8119226,52.6995682,Clare,Bunratty,Ireland,"Gardening,Nature and Wildlife,Gardens,Garden"
Burren and Cliffs of Moher UNESCO Geopark,http://www.burren.ie,+353(0)657072295,-9.001845896,53.00854191,Clare,,Ireland,Natural Landscape
Burren College of Art,https://www.burrencollege.ie,3.53657E+11,-9.1692788,53.1035457,Clare,Newtown,Ireland,"Craft,Shopping,Art Gallery"
Burren Fiddle Holidays,http://burrenfiddleholidays.com,3.53892E+11,-9.091726649,52.93708568,Clare,Corofin,Ireland,"Learning,Museums and Attraction"
Burren Free Range Pork Farm,http://burrenfreerangepork.com,3.53657E+11,-9.19232726,52.98621011,Clare,Kilfenora,Ireland,Visitor Farm
Burren Mountain Tours,https://www.burrenmountaintours.com,3.53868E+11,-9.273564828,53.12519249,Clare,Fanore,Ireland,"Activity Operator,Natural Landscape,Tour,Walking"
Burren Smokehouse,https://www.burrensmokehouse.com,3.53657E+11,-9.291965,53.028122,Clare,Lisdoonvarna,Ireland,Museums and Attraction
Burrow Beach Green Coast Award 2019,http://www.cleancoastsireland.org,,-6.105615187,53.39252621,Dublin,Sutton,Ireland,Beach
Burtown House Gardens,http://www.burtownhouse.ie,3.53599E+11,-6.8707423,52.9964989,Kildare,Athy,Ireland,"Gardening,Nature and Wildlife,Gardens,Garden"
Bushy Park,,+353(0)14900320,-6.292767969,53.30131952,Dublin,Terenure,Republic of Ireland,"Forest Park,Park and Forest Walk,Walking,National Park,National and Forest Park,Public Park,Nature and Wildlife"
Butlers Chocolate Experience,http://www.butlerschocolates.com/uk/chocolateexperience,+353(0)16710599,-6.219445,53.404051,Dublin,,Republic of Ireland,Museums and Attraction
Cablemaster's Residence,https://atlanticvilla.ie/cablemaster-house,3.53872E+11,-10.289066,51.922393,Kerry,Knightstown,Republic of Ireland,"Historic Houses and Castle,Castle"
Cadogan's Strand Green Coast Beach 2019,,,-9.546875421,51.52743728,Cork,Schull,Ireland,Beach
Caher Bridge Garden,https://www.facebook.com/pages/Caher-Bridge-Garden/173040762714810,3.53657E+11,-9.2510881,53.118571,Clare,Fanore,Ireland,"Gardening,Nature and Wildlife,Gardens,Garden"
Caherconnell Fort & Sheepdog Demonstrations,https://caherconnell.com,3.53657E+11,-9.1376358,53.041991,Clare,Carran,Ireland,"Museums and Attraction,Visitor Farm"
Cahermurphy Forest,http://www.coillte.ie/site/cahermurphy/,+353(0)61337322,-8.656252364,53.00584197,Clare,Feakle,Republic of Ireland,"Forest Park,Park and Forest Walk,Walking,National Park,National and Forest Park,Public Park,Nature and Wildlife"
Caheroyan House and Farm,http://www.caheroyanhouseathenry.com,35391844858,-8.7390461,53.305574,Galway,Athenry,Ireland,Visitor Farm
Caher Park,http://www.coillteoutdoors.ie/sites_and_trails/recreation_site_information/?rec_site=11&activity=&no_cache=1,+353(0)5241453,-7.923594282,52.37985108,Tipperary,Cahir,Republic of Ireland,"Forest Park,Park and Forest Walk,Walking,National Park,National and Forest Park,Public Park,Nature and Wildlife"
Cahir Castle,https://www.heritageireland.ie/en/south-east/cahircastle,3.53527E+11,-7.9270751,52.3745471,Tipperary,Cahir,Ireland,"Historic Houses and Castle,Castle"
Cahore Green Coast Beach 2019,,,-6.196157754,52.56097626,Wexford,Cahore,Republic of Ireland,Beach
C? Ailt an Chorr?in (Burtonport Harbour),,,-8.4413892,54.983318,Donegal,Burtonport,Ireland,Embarkation Point
Caimileon Art Studio,https://www.caimileon.com/,3.53876E+11,-8.933924,53.165389,Galway,Ballinderreen,Ireland,"Craft,Shopping,Art Gallery"
Calafort Ros an Mh?l (Rosaveal Harbour),,,-9.5618847,53.265879,Galway,Rossaveal,Ireland,Embarkation Point
Camas Park Garden,https://www.tipperarytown.ie/see-and-do/camas-park-gardens,3.53863E+11,-7.929296,52.53716,Tipperary,Cashel,Ireland,"Gardening,Nature and Wildlife,Gardens,Garden"
Camden Fort Meagher,http://www.camdenfortmeagher.ie,3.53859E+11,-8.278775337,51.80956934,Cork,Crosshaven,Ireland,"Historic Houses and Castle,Museums and Attraction,Learning"
Camolin Potting Shed Garden,https://www.camolinpottingshed.com/,3.53866E+11,-6.4604758,52.6148075,Wexford,Camolin,Ireland,"Gardening,Nature and Wildlife,Gardens,Garden"
Camp Beach,,+353(0)667121288,-9.922619032,52.22567895,Kerry,Camp,Republic of Ireland,Beach
Campview Farm Ltd,http://facebook.com/campviewfarmltd,3.5372E+11,-8.2199516,54.4960937,Donegal,Ballyshannon,Ireland,"Activity Operator,Tour,Visitor Farm"
C? an Bhuna Bhig (Bunbeg Harbour),,,-8.3093977,55.057756,Donegal,Bunbeg,Ireland,Embarkation Point
Cape Clear Island - Oile?n Chl?ire,http://www.oilean-chleire.ie/,+353(0)2839119,-9.493434858,51.43829493,Cork,Cape Clear Island,Republic of Ireland,"Island,Offshore Island"
Cappagh Pier,,,-9.498637,52.628546,Clare,Kilrush,Ireland,Discovery Point
Cappa Pier Blue Flag Award 2019,http://www.blueflagireland.org/,+353(0)656821616,-9.498815916,52.62831221,Clare,Kilrush,Republic of Ireland,Beach
Cappoquin House,https://www.cappoquinhouseandgardens.com,3.53877E+11,-7.8503399,52.1494507,Waterford,Cappoquin,Ireland,"Historic Houses and Castle,Castle"
Cappoquin House Gardens,https://www.cappoquinhouseandgardens.com,3535854290,-7.8503399,52.1494507,Waterford,Cappoquin,Ireland,"Gardening,Nature and Wildlife,Gardens,Garden"
Carey's Castle,https://www.coillte.ie/site/careys-castle,,-7.707235661,52.35841318,Tipperary,Clonmel,Republic of Ireland,"Historic Houses and Castle,Castle"
Carlingford Design House - Garrett Mallon Jewellery,http://www.carlingforddesignhouse.ie,3.53429E+11,-6.187375407,54.04272392,Louth,Carlingford,Ireland,"Craft,Shopping,Learning,Museums and Attraction"
Carlingford English Language School & Adventure Centre,http://www.learnenglish.ie,3.53429E+11,-6.1864949,54.0400748,Louth,Carlingford,Ireland,"Golf,Learning,Museums and Attraction"
Carlingford Heritage Centre,http://www.carlingfordheritagecentre.com,3.53429E+11,-6.185663542,54.03915689,Louth,Carlingford,Republic of Ireland,Museums and Attraction
Carlow Brewing Company,https://www.carlowbrewing.com,3.536E+11,-6.9761895,52.6965818,Carlow,,Ireland,Museums and Attraction
Carlow Castle,https://carlowtourism.com/carlow-castle-2,3.53599E+11,-6.935935,52.8362564,Carlow,,Ireland,"Historic Houses and Castle,Castle"
Carlow Cathedral,http://www.carlowcathedral.ie,3.53599E+11,-6.927924,52.837005,Carlow,Carlow Town,Republic of Ireland,"Historic Houses and Castle,Church Abbey,Monastery,Churches,Abbeys and Monastery"
Carlow County Museum,https://carlowmuseum.ie,3.53599E+11,-6.9282228,52.8363867,Carlow,,Ireland,Museums and Attraction
Carlow Courthouse,http://www.igp-web.com/Carlow/courthouse.htm,,-6.931212085,52.83821114,Carlow,,Republic of Ireland,"Historic Houses and Castle,Castle"
Carlow International English Language School (CIELS),http://www.ciels.ie,3.53599E+11,-6.914649,52.841773,Carlow,,Republic of Ireland,"Learning,Museums and Attraction"
Carne Blue Flag Beach 2019,http://blueflagireland.org/,,-6.350814262,52.19963541,Wexford,,Ireland,Beach
Carnivan Beach,,,-6.830589669,52.17620032,Wexford,,Republic of Ireland,Beach
Carol Cronin's Gallery,https://carolcronin.com/,3.53861E+11,-10.269942,52.141735,Kerry,Dingle,Ireland,"Craft,Shopping,Art Gallery"
Carol Smith Millinery,https://www.carolsmithhats.com,35340443101,-6.224878475,52.9720525,Wicklow,Rathdrum,Ireland,"Craft,Shopping,Learning,Museums and Attraction"
Carrablagh House,http://www.donegalgardentrail.com/site/?page_id=2558,3.53749E+11,-7.6113499,55.2220383,Donegal,Portsalon,Ireland,"Gardening,Nature and Wildlife,Gardens,Garden"
Carraig Abhainn Gardens,https://westcorkgardentrail.com/carraig-abhainn-gardens/,3.53876E+11,-9.5214824,51.6219243,Cork,Durrus,Ireland,"Gardening,Nature and Wildlife,Gardens,Garden"
Carran Medieval Church,,3.53657E+11,-8.77371953,52.74173116,Clare,Ennis,Republic of Ireland,"Church Abbey,Monastery,Churches,Abbeys and Monastery"
Carrickabraghey Castle,https://www.govisitinishowen.com/directory/carrickabraghy-castle-2,3.53749E+11,-7.3727509,55.3163658,Donegal,,Ireland,"Historic Houses and Castle,Castle,Ruins"
Carrickbyrne Hill,http://www.coillteoutdoors.ie/sites-and-trails/recreation-site-and-trails-search/?no_cache=1,,-6.777918962,52.36498714,Wexford,New Ross,Republic of Ireland,"Forest Park,Park and Forest Walk,Walking,National Park,National and Forest Park,Public Park,Nature and Wildlife"
Carrickfinn Blue Flag Beach 2019,,,-8.33341216,55.04804846,Donegal,,Republic of Ireland,Beach
Carrickmacross Workhouse,http://carrickmacrossworkhouse.com,3.5343E+11,-6.7248991,53.9785998,Monaghan,Carrickmacross,Ireland,Museums and Attraction
Carrigafoyle Castle,,+353(0)6843304,-9.494329,52.570218,Kerry,Ballylongford,Republic of Ireland,"Historic Houses and Castle,Castle"
Carrigafoyle Castle,,,-9.4946444,52.569712,Kerry,Ballylongford,Ireland,Discovery Point
Carrigaholt Bay,,,-9.702029,52.60016,Clare,Carrigaholt,Ireland,Discovery Point
Carrigaphooca Castle,http://historicsitesofireland.blogspot.com/2018/02/carrigaphooca-castle.html,3532821489,-9.028399,51.908549,Cork,Macroom,Republic of Ireland,"Historic Houses and Castle,Castle"
Carrigogunnell Castle,http://www.megalithicireland.com/Carrigogunnell%20Castle.html,35361317522,-8.741821,52.646438,Limerick,Limerick City,Republic of Ireland,"Historic Houses and Castle,Castle"
Carrowkeel Megalithic Site,http://www.megalithicireland.com/Carrowkeel%20home.htm,,-8.387667137,54.07453456,Sligo,Carrowkeel,Republic of Ireland,"Church Abbey,Monastery,Churches,Abbeys and Monastery"
"Carrowmore, Blue Flag Beach 2019",http://www.blueflagireland.org/,+353(0)14002202,-9.821611831,53.77166934,Mayo,Carrowmore,Republic of Ireland,Beach
Carrowniskey Green Coast Beach 2019,http://www.cleancoastsireland.org/,,-9.90006543,53.72720069,Mayo,Louisburgh,Ireland,Beach
Carrownisky Strand,,,-9.893226,53.735383,Mayo,Louisburgh,Ireland,Discovery Point
Carrowtemple,http://www.earlychristianireland.net/Counties/sligo/carrowtemple,3.53719E+11,-8.517817239,53.98433101,Sligo,Gurteen,Republic of Ireland,"Church Abbey,Monastery,Churches,Abbeys and Monastery"
Cashel Folk Village Museum,https://www.cashelfolkvillage.com,3536263601,-7.8882142,52.5174899,Tipperary,Cashel,Ireland,Museums and Attraction
Cashel House Hotel and Gardens,https://cashelhouse.ie/cms/gardens/,3539531001,-9.8079229,53.4196461,Galway,Cashel,Ireland,"Gardening,Nature and Wildlife,Gardens,Garden"
Castel International [Education),http://www.casteleducation.com,3.53667E+11,-9.67260499,52.28655619,Kerry,Tralee,Ireland,"Learning,Museums and Attraction"
Castle Adventure Open Farm,https://openfarm.ie/,3.53874E+11,-8.2373784,54.5142354,Donegal,Ballyshannon,Ireland,"Cafe,Food and Drink,Visitor Farm"
Castle Arch Pottery,http://www.castlearchpottery.ie,3.53568E+11,-7.250015491,52.64961438,Kilkenny,Kilkenny City,Ireland,"Craft,Shopping,Learning,Museums and Attraction"
Castlecomer Discovery Park and Visitor Centre,http://www.discoverypark.ie,+353(0)564440707,-7.201923229,52.80728064,Kilkenny,Castlecomer,Republic of Ireland,"Forest Park,Park and Forest Walk,Walking,National Park,National and Forest Park,Public Park,Nature and Wildlife"
Castlecomer Estate Craft Yard,http://www.castlecomercraftyard.com,3.53564E+11,-7.202379,52.8072,Kilkenny,Castlecomer,Ireland,"Craft,Shopping,Learning,Museums and Attraction"
Castlecoote House and Gardens,http://www.castlecootehouse.com,3.53907E+11,-8.2909025,53.6162109,Roscommon,Castlecoote,Ireland,"Historic Houses and Castle,Castle"
Castlecoote House and Gardens ? Home of the Percy French Summer School,http://www.castlecootehouse.com,3.53907E+11,-8.2909025,53.6162109,Roscommon,Castlecoote,Ireland,"Gardening,Nature and Wildlife,Gardens,Garden"
Castledermot Round Tower & High Cross & St. Davids Graveyard,http://www.kildare.ie/heritage/Grose-Antiquities-1792/castledermot-church-and-round-tower.asp,,-6.834859,52.9103756,Kildare,,Ireland,"Church Abbey,Monastery,Churches,Abbeys and Monastery"
Castle Durrow,http://www.castledurrow.com,3.53579E+11,-7.40103,52.846301,Laois,Durrow,Ireland,"Gardening,Nature and Wildlife,Gardens,Garden"
Castle Ellen House,http://www.facebook.com/castleellenhouse,3.53873E+11,-8.7626456,53.3374857,Galway,Athenry,Ireland,"Historic Houses and Castle,Castle"
Castlefarm Shop,http://www.castlefarmshop.ie,3.53877E+11,-6.8612811,53.0531178,Kildare,Narraghmore,Ireland,Visitor Farm
Castleforbes College,http://castleforbescollege.com,+353(0)18746848,-6.25930926,53.35748598,Dublin,Dublin City,Republic of Ireland,"Learning,Museums and Attraction"
Castlegregory Beach Green Coast Beach Award 2017,,,-10.013826,52.260314,Kerry,Castlegregory,Ireland,Discovery Point
Castle Leslie,http://www.castleleslie.com,3534788100,-6.893738,54.318282,Monaghan,Glaslough,Ireland,"Historic Houses and Castle,Castle"
Castlelyons Dominican Friary,http://irishantiquities.bravehost.com/cork/castlelyons/castlelyons.html,3.53214E+11,-8.2335,52.089393,Cork,Castlelyons,Republic of Ireland,"Church Abbey,Monastery,Churches,Abbeys and Monastery"
Castle Murray Hotel & Restaurant,http://www.castlemurray.com,3.5375E+11,-8.374881,54.620469,Donegal,Dunkineely,Ireland,"Cooking,Cookery,Learning,Museums and Attraction"
Castlerea Railway Museum and Pub,http://www.hellskitchenmuseum.com,3.53872E+11,-8.494764567,53.76982683,Roscommon,Castlerea,Republic of Ireland,Museums and Attraction
Castle Roche,https://www.visitlouth.ie/explore-and-do/explore-louth/castles-and-conquests-louth/castle-roche.html,3.53429E+11,-6.48843,54.046471,Louth,Dundalk,Republic of Ireland,"Historic Houses and Castle,Castle"
Castletownbere Harbour,,,-9.9082625,51.652249,Cork,,Ireland,Embarkation Point
Castletown Glebe Garden,http://www.discoverloughderg.ie/castletown-glebe-garden,3536723318,-8.344511534,52.8833671,Tipperary,Portroe,Republic of Ireland,"Gardening,Nature and Wildlife,Gardens,Garden"
Castletown House,http://castletown.ie,35316288252,-6.53029,53.349127,Kildare,Castletown,Ireland,"Historic Houses and Castle,Castle"
Castletown House Parkland,http://www.castletown.ie,35316288252,-6.53029,53.349127,Kildare,Castletown,Ireland,"Gardening,Nature and Wildlife,Gardens,Garden"
Cathedral Of Christ The King,http://www.mullingarparish.ie,3.53449E+11,-7.345757,53.5269194,Westmeath,Mullingar,Ireland,"Historic Houses and Castle,Church Abbey,Monastery,Churches,Abbeys and Monastery"
Cathedral Of St Mary & St Anne,http://www.corkcathedral.ie,3.53214E+11,-8.4764204,51.9046783,Cork,,Ireland,"Cafe,Food and Drink,Historic Houses and Castle,Church Abbey,Monastery,Churches,Abbeys and Monastery"
Cathedral of the Most Holy Trinity,http://www.waterford-cathedral.com,35351874757,-7.1111721,52.2615066,Waterford,,Ireland,"Church Abbey,Monastery,Churches,Abbeys and Monastery"
Causey Farm,https://www.causey.ie,3.53469E+11,-6.9199066,53.6662173,Meath,,Ireland,"Activity Operator,Cafe,Food and Drink,Visitor Farm"
Cavanacor House Gallery,http://www.cavanacorgallery.ie/,3.53749E+11,-7.5123705,54.8490023,Donegal,,Ireland,"Craft,Shopping,Art Gallery"
Cavan and Leitrim Railway,http://cavanandleitrim.com,3.5372E+11,-7.91651,53.859514,Leitrim,Dromod,Republic of Ireland,Museums and Attraction
Cavan Burren Park Walks,http://www.facebook.com/thisiscavan,+353(0)499526121,-7.877303497,54.29127728,Cavan,Blacklion,Ireland,"Forest Park,Park and Forest Walk,Walking,National Park,National and Forest Park,Public Park,Nature and Wildlife"
Cavan County Museum,http://cavanmuseum.ie,3.53499E+11,-7.201083,53.8670567,Cavan,Kilmore,Ireland,Museums and Attraction
Caves of Keash Visitor Centre and Gift Shop,http://keash.ie/caves-of-keash,3.53719E+11,-8.443637525,54.04419501,Sligo,Ballymote,Ireland,Museums and Attraction
C? Bhaile an Sceilg (Ballinskelligs Pier),,,-10.274349,51.810877,Kerry,Ballinskelligs,Ireland,Embarkation Point
C? Bhun an Bhaile (Bunavalla Pier),,,-10.151561,51.765694,Kerry,Caherdaniel,Ireland,Embarkation Point
C? Chulainn,http://talkingstatuesdublin.ie/,,-6.260721,53.349349,Dublin,,Ireland,Public Sculpture
C? Dh?n Chaoin (Dunquin Pier),,,-10.460014,52.125193,Kerry,Dingle Peninsula,Ireland,Embarkation Point
Ceann an Eanaigh (Annagh Head),,,-10.102216,54.241494,Mayo,,Ireland,Discovery Point
Ceann Ramhar (Doohoma Head),,,-9.9620461,54.07159,Mayo,Doohoma,Ireland,Discovery Point
Ceann Sl?ibhe (Slea Head),,,-10.438479,52.099645,Kerry,Dingle Peninsula,Ireland,Discovery Point
Ceardlann Spiddal Craft & Design Studios,http://www.ceardlann.com,35391553376,-9.3003874,53.2447274,Galway,Spiddal,Ireland,"Craft,Shopping,Learning,Museums and Attraction"
Ceibh an Spideal,,,-9.3057445,53.242357,Galway,Spiddal,Ireland,Discovery Point
Celtic Plantarum Dundrum,https://www.garden.ie/gardenstosee/celtic-plantarum-dundrum/,3536271303,-8.04394294,52.5576255,Tipperary,Dundrum,Republic of Ireland,"Gardening,Nature and Wildlife,Gardens,Garden"
Celtic & Prehistoric Museum,http://www.facebook.com/The-Celtic-Prehistoric-Museum-271708022869479,3.53669E+11,-10.393221,52.112549,Kerry,Ventry,Republic of Ireland,Museums and Attraction
CELT Weekend in the Woods Traditional Skills and Ecology Training,http://www.celtnet.org,35361640765,-8.532222,52.910152,Clare,,Republic of Ireland,"Learning,Museums and Attraction"
Centre of English Studies,http://www.ces-schools.com,+353(0)16714233,-6.263502,53.344068,Dublin,,Republic of Ireland,"Learning,Museums and Attraction"
Ceol na Coille ? School of Irish Traditional Music,http://www.ceolnacoille.ie,3.53877E+11,-7.7342787,54.9558392,Donegal,Letterkenny,Ireland,"Learning,Museums and Attraction"
Charles Fort,http://www.heritageireland.ie/en/south-west/charlesfort,3.53215E+11,-8.4989435,51.6970946,Cork,Kinsale,Ireland,"Historic Houses and Castle,Castle"
Charles Stewart Parnell,,,-6.262251,53.353723,Dublin,,Republic of Ireland,Public Sculpture
Charleville Castle,http://www.charlevillecastle.com,3.53579E+11,-7.52792,53.260464,Offaly,Tullamore,Republic of Ireland,"Historic Houses and Castle,Castle"
Charleville Castle,http://www.charlevillecastle.ie,3.53579E+11,-7.5279202,53.260464,Offaly,Tullamore,Ireland,"Gardening,Nature and Wildlife,Gardens,Garden"
Chester Beatty,http://www.chesterbeatty.ie,+353(0)14070750,-6.267472799,53.34227446,Dublin,,Republic of Ireland,"Cafe,Food and Drink,Literary Ireland,Museums and Attraction,Learning"
Chester Beatty,http://www.chesterbeatty.ie,+353(0)14070750,-6.26747371,53.34226875,Dublin,,Ireland,"Craft,Shopping,Art Gallery"
Children's Art Workshops at the Cill Rialaig Arts Centre,https://cillrialaigartscentre.com/category/workshop,3.53669E+11,-10.266434,51.832582,Kerry,Ballinskelligs,Ireland,"Craft,Shopping,Learning,Museums and Attraction"
Chimera Gallery,http://www.chimera-gallery.com,3.53878E+11,-7.3435033,53.5251266,Westmeath,Mullingar,Ireland,Art Gallery
Christ Church Castlebar,http://www.tuam.anglican.org/aughaval-westport/castlebar-christ-church,,-9.299977,53.854419,Mayo,Castlebar,Republic of Ireland,"Church Abbey,Monastery,Churches,Abbeys and Monastery"
Christ Church Cathedral,http://www.christchurchwaterford.com,+353(0)51858958,-7.107548169,52.25986246,Waterford,Waterford City,Republic of Ireland,"Church Abbey,Monastery,Churches,Abbeys and Monastery"
Christ Church Cathedral,https://christchurchcathedral.ie,35316778099,-6.271123,53.343459,Dublin,,Republic of Ireland,"Church Abbey,Monastery,Churches,Abbeys and Monastery"
Christ Church - Glandore,https://www.facebook.com/christchurchglandore,3532833177,-9.1237442,51.5656831,Cork,,Ireland,"Historic Houses and Castle,Church Abbey,Monastery,Churches,Abbeys and Monastery"
Christ Church - Glandore,https://www.facebook.com/christchurchglandore,3532833177,-9.1237442,51.5656831,Cork,,Ireland,"Church Abbey,Monastery,Churches,Abbeys and Monastery"
Church of the Resurrection Blarney,https://aloadofblarney.ie/stop-9-church-ireland-church-resurrection,+353(0)214871106,-8.5685876,51.9336175,Cork,Blarney,Ireland,"Church Abbey,Monastery,Churches,Abbeys and Monastery"
C?ide Fields,,,-9.4558463,54.308559,Mayo,Ballycastle,Ireland,Discovery Point
C?ide Fields Visitor Centre & Site,http://www.heritageireland.ie/en/west/ceidefields,3539643325,-9.457629,54.3071,Mayo,Ballycastle,Republic of Ireland,Museums and Attraction
Cill Mhuirbhigh Blue Flag Beach 2019,,,-9.75011185,53.13084983,Galway,,Ireland,Beach
Cill Rialaig Arts Centre,https://cillrialaigartscentre.com,3.53669E+11,-10.266434,51.832582,Kerry,Ballinskelligs,Ireland,"Craft,Shopping,Art Gallery"
Cionn Fh?nada (Fanad Head),,,-7.6344444,55.2763889,Donegal,Fanad Head,Ireland,Discovery Point
Cionn Mhucrois (Muckros Head),,,-8.5899407,54.617378,Donegal,Kilcar,Ireland,Discovery Point
Circle of Life National Organ Donor Commemorative Garden,http://www.strangeboat.org,3.53877E+11,-9.0855395,53.2580142,Galway,,Ireland,"Gardening,Nature and Wildlife,Gardens,Garden"
CIT Blackrock Castle Observatory,http://www.bco.ie,3.53214E+11,-8.402514,51.900235,Cork,Blackrock,Republic of Ireland,"Cafe,Food and Drink,Historic Houses and Castle,Castle,Learning,Museums and Attraction"
City Assembly House,http://www.igs.ie/conservation/project/city-assembly-house-a-history,+353(0)16798675,-6.2624532,53.34199229,Dublin,,Ireland,Museums and Attraction
City Hall Cork,,3.53215E+11,-8.464807,51.8965976,Cork,,Ireland,"Historic Houses and Castle,Castle"
Claggan Mountain Coastal Trail,http://www.ballycroynationalpark.ie,,-9.792957,53.957327,Mayo,Ballycroy,Ireland,Discovery Point
Clahane,,,-9.423185,52.9326516,Clare,Liscannor,Ireland,Discovery Point
Clapper Bridge,http://www.louisburgh.net,,-9.814498611,53.76438174,Mayo,Louisburgh,Ireland,Natural Landscape
Clara Bog Visitor Centre,http://www.facebook.com/ClaraBog,3.53579E+11,-7.629768,53.323168,Offaly,Clara,Republic of Ireland,"Museums and Attraction,Natural Landscape"
Clare Abbey,http://monastic.ie/history/clare-augustinian-abbey,3.53657E+11,-8.9689595,52.8290238,Clare,Ennis,Ireland,"Church Abbey,Monastery,Churches,Abbeys and Monastery"
Claregalway Museum and Forge,https://facebook.com/ClaregalwayHistoricalSociety,3.53868E+11,-8.927952,53.359957,Galway,Claregalway,Ireland,Museums and Attraction
Clare Island,,+353(0)9826525,-10.00450828,53.80688381,Mayo,Clare Island,Republic of Ireland,"Island,Offshore Island"
Clare Island,,,-10.00450828,53.80688381,Mayo,,Ireland,Discovery Point
Clare Island Blue Flag Beach 2019,http://www.blueflagireland.org/,+353(0)14002202,-9.951902816,53.80019954,Mayo,Clare Island,Republic of Ireland,Beach
Clare Language Centre,http://www.clarelc.ie,3.53657E+11,-8.985519,52.847498,Clare,Ennis,Republic of Ireland,"Learning,Museums and Attraction"
Clasac,http://www.clasac.ie,+353(0)18363060,-6.230766,53.360651,Dublin,Clontarf,Republic of Ireland,Museums and Attraction
Claycastle Beach,http://www.blueflag.org,+353(0)214255100,-7.851439055,51.93921414,Cork,Youghal,Republic of Ireland,"Beach,Swimming,Swimming Pools and Water Park,Venue,Walking"
Claypipe Visitor Centre,http://www.oghamwish.com/index.aspx?pageid=2675925,3.53907E+11,-8.095668,53.576378,Roscommon,Knockcroghery,Ireland,Museums and Attraction
Cleggan Harbour,,,-10.111172,53.556776,Galway,Cleggan,Ireland,Embarkation Point
Cleire Goats,http://www.oilean-chleire.ie,3532839126,-9.492451,51.4420574,Cork,,Ireland,Visitor Farm
Clew Bay Heritage Centre,http://www.westportheritage.com,3539826852,-9.55461,53.801673,Mayo,Rosbeg,Ireland,Museums and Attraction
Clifden Castle,https://guidetoconnemara.com/item/clifden-castle,3539521163,-10.05673,53.49178,Galway,,Ireland,"Historic Houses and Castle,Castle"
Cliffs of Moher,http://www.cliffsofmoher.ie,,-9.4260442,52.971639,Clare,Liscannor,Ireland,"Bird Watching,Nature and Wildlife,Discovery Point"
Cliffs of Moher Visitor Experience,https://www.cliffsofmoher.ie,3.53657E+11,-9.4263309,52.9719433,Clare,Liscannor,Ireland,"Museums and Attraction,Natural Landscape"
Cl?ire (Clear Island),,,-9.4922606,51.4387985,Cork,,Ireland,Discovery Point
Clogher Castle,https://www.cloghancastle.ie,3.53719E+11,-8.51182,53.9373,Sligo,Monasteraden,Republic of Ireland,"Historic Houses and Castle,Castle"
Clogherhead Blue Flag Beach 2019,http://www.blueflagireland.org/,+353(0)429352111,-6.234088994,53.78833552,Louth,Clogherhead,Republic of Ireland,Beach
Clogher Heritage Complex,http://www.museumsofmayo.com/clogher-heritage-centre/clogher-heritage-centre.html,3.53949E+11,-9.2465285,53.7633927,Mayo,,Ireland,Museums and Attraction
Clonakilty Brewing Company,http://clonakiltybrew.ie,3.53871E+11,-8.9019341,51.61647,Cork,Clogheen,Ireland,Museums and Attraction
Clonakilty Chocolate,https://explodingtree.com/shop,3.53858E+11,-8.8913215,51.6247537,Cork,Clonakilty,Ireland,"Cooking,Cookery,Learning,Museums and Attraction"
Clonakilty Distillery,http://clonakiltydistillery.ie,3.53239E+11,-8.8859294,51.6215637,Cork,Clonakilty,Ireland,Museums and Attraction
Clonalis House,http://www.clonalis.com,3.5395E+11,-8.508685,53.770136,Roscommon,Castlerea,Ireland,"Historic Houses and Castle,Castle"
Cloncallow Garden,http://cloncallow.com,3.53868E+11,-6.076193479,53.06779275,Wicklow,Newcastle,Ireland,"Gardening,Nature and Wildlife,Gardens,Garden"
Clonea Strand Blue Flag Beach 2019,http://www.blueflagireland.org/,,-7.542845687,52.09615202,Waterford,Clonea,Republic of Ireland,Beach
Clonfert Cathedral,http://www.megalithicireland.com/Clonfert%20Cathedral.html,,-8.0583679,53.2406887,Galway,,Ireland,"Church Abbey,Monastery,Churches,Abbeys and Monastery"
Clonmacnoise - Monastic site,https://www.visitoffaly.ie/Places-to-Go/Clonmacnoise-Monastic-Site,3.5391E+11,-7.9862945,53.3262773,Offaly,Clonmacnoise,Ireland,"Church Abbey,Monastery,Churches,Abbeys and Monastery"
Clonmore Castle,"http://www.megalithicireland.com/Clonmore%20Castle,%20Carlow.html",,-6.5751246,52.8282856,Carlow,Hacketstown,Ireland,"Historic Houses and Castle,Castle,Ruins"
Clonohill Gardens,https://www.gardensofireland.org/directory/31/,3.53579E+11,-7.625490356,52.98564781,Laois,Coolrain,Ireland,"Gardening,Nature and Wildlife,Gardens,Garden"
Clonony Castle,https://facebook.com/ClononyCastle/?fref=ts,3.53878E+11,-7.922767,53.2358989,Offaly,,Ireland,"Historic Houses and Castle,Castle"
Cloughjordan House Cookery School,http://www.cloughjordanhouse.com/cookery-school,3.5388E+11,-8.0356871,52.9448854,Tipperary,Cloughjordan,Ireland,"Cooking,Cookery,Learning,Museums and Attraction"
Clough Oughter Castle,https://www.thisiscavan.ie/fun/article/visit-clough-oughter-castle,,-7.4548,54.018744,Cavan,,Ireland,"Historic Houses and Castle,Bird Watching,Nature and Wildlife,Castle,Ruins"
Cloyne Round Tower,http://cloyne.ie/about/round-tower,3.53215E+11,-8.1202974,51.8620116,Cork,,Ireland,"Church Abbey,Monastery,Churches,Abbeys and Monastery"
Cluain na dTor Seaside Gardens & Nursery,http://www.seasideplants.eu,3.53749E+11,-8.1066942,55.13931,Donegal,Ballyconnell,Ireland,"Food Shops,Shopping,Gardening,Nature and Wildlife,Gardens,Garden"
C? Mhachaire U? Rabhartaigh (Min Larach Harbour),,,-8.1746006,55.146192,Donegal,,Ireland,Embarkation Point
C? na Glinsce (Glinsk Pier).,,,-9.84062523,53.37488072,Galway,Carna,Ireland,Discovery Point
Cnoc Fola,,,-8.2895011,55.137202,Donegal,,Ireland,Discovery Point
Cobh Heritage Centre ? the Emigration & Maritime Story,http://www.cobhheritage.com,3.53215E+11,-8.2989737,51.8489477,Cork,Kilgarvan,Ireland,Museums and Attraction
Cobh Museum,http://www.cobhmuseum.com,3.53215E+11,-8.2994359,51.8493205,Cork,Kilgarvan,Ireland,"Tracing Your Ancestors,Historic Houses and Castle,Museums and Attraction,Learning,Photography"
Coille an Fhaltaigh Millennium Forest,http://www.coillteoutdoors.ie,,-7.425718423,52.62034877,Kilkenny,Kilmanagh,Republic of Ireland,"Forest Park,Park and Forest Walk,Walking,National Park,National and Forest Park,Public Park,Nature and Wildlife"
Cois na hAbhann Garden Home and Lifestyle Centre,http://www.coisnahabhann.ie,3.53539E+11,-6.417507,52.620097,Wexford,Camolin,Ireland,"Gardening,Nature and Wildlife,Gardens,Garden"
Colclough Walled Garden,http://www.colcloughwalledgarden.com/,3.53833E+11,-6.8425278,52.234339,Wexford,New Ross,Ireland,"Gardening,Nature and Wildlife,Gardens,Garden"
Col?iste Gaeilge an Leith-Triuigh,http://www.cflt.ie/irish-college,3.53667E+11,-10.1714042,52.2567077,Kerry,Brandon,Ireland,"Learning,Museums and Attraction"
Col?iste Na Rinne,http://www.anrinn.com,3535846128,-7.590865986,52.05038327,Waterford,Ring,Republic of Ireland,"Learning,Museums and Attraction"
Colla Pier,,,-9.561419,51.506532,,,Ireland,Embarkation Point
Collon House,http://www.collonhouse.com,3.53872E+11,-6.4864,53.7782,Louth,Collon,Ireland,"Historic Houses and Castle,Castle"
Colmcille Heritage Centre,http://www.colmcilleheritagecentre.ie,3.53749E+11,-7.9036327,54.9934003,Donegal,Churchill,Ireland,Museums and Attraction
Com an Chiste (Coomakista),,,-10.167109,51.776386,Kerry,Caherdaniel,Ireland,Discovery Point
Conamara Irish Culture Experience,http://www.cnocsuain.com,35391555703,-9.305734248,53.24549672,Galway,Spiddal,Republic of Ireland,"Learning,Museums and Attraction"
Coney Island,http://www.discoverireland.ie/sligo,+353(0)719161201,-8.583816376,54.29963565,Sligo,,Republic of Ireland,"Bird Watching,Nature and Wildlife,Island,Offshore Island"
Cong Abbey,"http://www.megalithicireland.com/Cong%20Abbey,%20Mayo.html",,-9.2868863,53.5403009,Mayo,Cong,Ireland,"Church Abbey,Monastery,Churches,Abbeys and Monastery"
Conna Castle,https://www.castles.nl/conna-castle,3.53214E+11,-8.1016545,52.0945205,Cork,Conna,Ireland,"Historic Houses and Castle,Castle"
Connacht Whiskey Distillery,https://connachtwhiskey.com,3539674902,-9.1442603,54.1218785,Mayo,Belleek,Ireland,Museums and Attraction
Connemara Blue Artisan Glass,www.connemarablue.com,3539530782,-10.022714,53.488207,Galway,Clifden,Ireland,"Activity Operator,Craft,Shopping,Art Gallery,Learning,Museums and Attraction"
Connemara Celtic Crystal,http://www.celticcrystalireland.com,35391555172,-9.172335,53.3440697,Galway,Moycullen,Ireland,"Craft,Shopping,Learning,Museums and Attraction"
Connemara Creative Workshops,https://www.connemaracreative.ie/?fbclid=IwAR3W1vo_xbeIIVkA9_XAIyXVbkj7p07l28TNOhuHyT8bxIY2Zc4qzHIzYag,3.53877E+11,-9.998142836,53.54261721,Galway,Moyard,Ireland,"Craft,Shopping,Learning,Museums and Attraction"
Connemara National Park,http://www.connemaranationalpark.ie,3539541054,-9.9455127,53.5506192,Galway,Letterfrack,Ireland,"Forest Park,Park and Forest Walk,Walking,National Park,National and Forest Park,Public Park,Nature and Wildlife"
Connor Crean Centre,,+353(0)669157419,-10.057646,52.152209,Kerry,Annascaul,Republic of Ireland,"Craft,Shopping,Learning,Museums and Attraction"
Contemporary Music Centre,http://www.cmc.ie,+353(0)16731922,-6.269532,53.344173,Dublin,Dublin City,Republic of Ireland,Literary Ireland
Cooking Classes at Eden Hall,http://www.cookingclasses.ie,3.53569E+11,-7.326314,52.791519,Kilkenny,Ballyragget,Ireland,"Cooking,Cookery,Learning,Museums and Attraction"
Cooks Academy Ireland Culinary School,http://www.cooksacademy.com,+353(0)16111667,-6.262826,53.342051,Dublin,Dublin City,Republic of Ireland,"Cooking,Cookery,Learning,Museums and Attraction"
Coolaught Gardens,https://www.facebook.com/CoolaughtGardens/,3.53539E+11,-6.7186105,52.4686372,Wexford,Enniscorthy,Ireland,"Gardening,Nature and Wildlife,Gardens,Garden"
Coolcarrigan House,http://www.coolcarrigan.ie,+353(0)45863527,-6.851319069,53.31908404,Kildare,Naas,Republic of Ireland,"Historic Houses and Castle,Castle"
Coolcarrigan House Gardens,http://www.coolcarrigan.ie,35345863527,-6.8513095,53.3185654,Kildare,Naas,Ireland,"Gardening,Nature and Wildlife,Gardens,Garden"
Cool Planet Experience,https://www.coolplanetexperience.org,35315180197,-6.187439,53.184486,Wicklow,,Ireland,Museums and Attraction
Coolwater Garden,http://coolwatergarden.com,3.53873E+11,-8.5660342,52.5615781,Limerick,Fedamore,Ireland,"Gardening,Nature and Wildlife,Gardens,Garden"
Coomanaspic,,,-10.367267,51.85617,Kerry,Portmagee,Ireland,Discovery Point
Copper Coast Mini Farm,https://www.facebook.com/CopperCoasMiniFarm/,35351396870,-7.2379895,52.1598492,Waterford,,Ireland,Visitor Farm
CopperCoast Road Bowling Tuition,http://fenorroadbowling.blogspot.ie,35351338443,-7.221271679,52.15698784,Waterford,Fenor,Ireland,"Learning,Museums and Attraction"
Coppinger's Court,"http://www.megalithicireland.com/Coppinger's%20Court,%20Cork.html",3532821489,-9.0668602,51.5716479,Cork,,Ireland,"Historic Houses and Castle,Castle"
Corcomroe Cistercian Abbey,http://monastic.ie/history/corcomroe-cisterican-abbey,3.53657E+11,-9.0540065,53.1268421,Clare,,Ireland,"Church Abbey,Monastery,Churches,Abbeys and Monastery"
Cork Butter Museum,http://www.corkbutter.museum,3.53214E+11,-8.476735,51.902765,Cork,,Ireland,"Museums and Attraction,Learning"
Cork City and County Archives,http://www.corkarchives.ie,3.53215E+11,-8.4748785,51.9089459,Cork,Blackpool,Ireland,Museums and Attraction
Cork City Gaol & Radio Museum Experience,http://www.corkcitygaol.com,3.53214E+11,-8.49866322,51.89876292,Cork,Cork City,Republic of Ireland,"Historic Houses and Castle,Museums and Attraction"
Cork City Library,http://www.corkcitylibraries.ie,+353(0)214924900,-8.475332,51.896731,Cork,Cork City,Republic of Ireland,"Literary Ireland,Learning,Museums and Attraction"
Cork Courthouse,http://www.courts.ie/offices.nsf/bae2125da4ef043080256e45004d04f3/0a9a7f907f3e33fe80256e450050b94a?OpenDocument,3.53214E+11,-8.4788107,51.89781,Cork,,Ireland,"Historic Houses and Castle,Castle"
Cork English Academy,http://corkenglishacademy.com,3.53214E+11,-8.479970943,51.89713097,Cork,Cork City,Ireland,"Learning,Museums and Attraction"
Cork English College International Language & Activity Holidays,http://www.corkenglishcollege.ie,3.53215E+11,-8.466683,51.900773,Cork,Cork City,Republic of Ireland,"Learning,Museums and Attraction"
Cork English World,http://www.cew.ie,3.53873E+11,-8.4801702,51.8946318,Cork,Cork City,Ireland,"Learning,Museums and Attraction"
Cork Photo Gallery,https://www.facebook.com/corkphoto/,+353(0)860241947,-8.493643468,51.89593045,Cork,Cork City,Ireland,"Craft,Shopping,Art Gallery"
Cork Public Museum,https://www.corkcity.ie/en/things-to-do/attractions/cork-public-museum,3.53214E+11,-8.4943133,51.8962948,Cork,,Ireland,"Cafe,Food and Drink,Museums and Attraction,Learning,Photography"
Corlea Bog,http://www.heritageireland.ie/en/midlands-eastcoast/corleatrackwayvisitorcentre/,+353(0)433322386,-7.843296101,53.6126806,Longford,,Republic of Ireland,Natural Landscape
Corlea Trackway Visitor Centre,http://www.heritageireland.ie/en/midlands-eastcoast/corleatrackwayvisitorcentre,+353(0)433322386,-7.845441318,53.61252651,Longford,Kenagh,Republic of Ireland,Museums and Attraction
Corravahan House and Gardens,http://www.corravahan.com,3.5388E+11,-7.259745,54.0352035,Cavan,,Ireland,"Historic Houses and Castle,Castle"
Costello Chapel,http://www.carrickonshannonparish.com/costello.htm,3.5372E+11,-8.0953457,53.945309,Leitrim,,Ireland,"Historic Houses and Castle,Castle"
Councillors Strand Blue Flag Beach 2019,http://www.blueflagireland.org/,,-6.996491173,52.15429799,Waterford,Dunmore East,Ireland,Beach
County Carlow Military Museum,https://www.facebook.com/carlowmilitarymuseum,3.53877E+11,-6.928629,52.8433935,Carlow,,Ireland,Museums and Attraction
County Museum Dundalk,https://www.louthcoco.ie/en/contact/location_maps/dundalk/dundalk_museum.html,3.53429E+11,-6.3971254,54.0046228,Louth,Dundalk,Ireland,Museums and Attraction
Courthouse Arts Centre,http://courthousearts.ie,35340238529,-6.4639222,52.7991525,Wicklow,Tinahely,Ireland,"Learning,Museums and Attraction"
Courtown Blue Flag Beach 2019,,,-6.225270324,52.64798709,Wexford,Courtown,Republic of Ireland,Beach
Crafts of Ireland,http://craftsofireland.ie,3.53868E+11,-7.0886528,53.785466,Cavan,Virginia,Ireland,"Craft,Shopping,Learning,Museums and Attraction"
Crag Cave,http://www.cragcave.com,3.53667E+11,-9.444364,52.247082,Kerry,Castleisland,Republic of Ireland,Natural Landscape
Craggaunowen - The Living Past Experience,http://www.shannonheritage.com,35361360788,-8.793719,52.81098,Clare,Quin,Republic of Ireland,Museums and Attraction
Craiceann Inis O?rr International Bodhr?n Summer School,http://www.craiceann.com,3539975067,-9.521584308,53.0641934,Galway,Aran Islands,Republic of Ireland,"Learning,Museums and Attraction"
Cratloe Woods,http://www.coillteoutdoors.ie/,+353(0)61337322,-8.76565,52.7016,Clare,Cratloe,Republic of Ireland,"Forest Park,Park and Forest Walk,Walking,National Park,National and Forest Park,Public Park,Nature and Wildlife"
Crawford Art Gallery,http://www.crawfordartgallery.ie,3.53215E+11,-8.473284,51.899862,Cork,,Ireland,"Cafe,Food and Drink,Craft,Shopping,Art Gallery,Learning,Museums and Attraction"
Creations By Annette Whelan,https://www.facebook.com/pages/category/Artist/Creations-by-Annette-Whelan-Fused-Glass-142011612483235,3.53539E+11,-6.57395,52.186086,Wexford,Kilmore Quay,Ireland,"Craft,Shopping,Learning,Museums and Attraction"
Creative Ardagh,http://creativeardagh.blogspot.ie,3.53863E+11,-7.682975,53.66724,Longford,,Ireland,Museums and Attraction
Creevelea Abbey,https://leitrimtourism.com/products/creevelea-abbey,,-8.3095197,54.2309773,Leitrim,,Ireland,"Church Abbey,Monastery,Churches,Abbeys and Monastery,Ruins,Historic Houses and Castle"
Croagh Patrick,http://www.croagh-patrick.com,3539864114,-9.6597913,53.7599117,Mayo,,Ireland,"Church Abbey,Monastery,Churches,Abbeys and Monastery"
Croagh Patrick View,,,-9.640141,53.779411,Mayo,Murrisk,Ireland,Discovery Point
Crookstown Craft Village,http://www.crookstowncraftvillage.com,3.53599E+11,-6.800936428,53.01824529,Kildare,Crookstown,Ireland,"Craft,Shopping,Learning,Museums and Attraction"
Croppies Grave,http://www.igp-web.com/Carlow/croppies_graves.htm,,-6.9391607,52.8389539,Carlow,,Ireland,Museums and Attraction
"Cross, Erris Peninsula Green Coast Beach 2019",http://www.cleancoastsireland.org,,-10.09265956,54.20101196,Mayo,Belmullet,Ireland,Beach
Cross Strand Beach,http://www.cleancoastsireland.org/,,-9.909850128,53.71633236,Mayo,Louisburgh,Ireland,Beach
Crotty Church,http://www.irishidentity.com/extras/clergy/stories/crotty.htm,,-7.9140512,53.0940964,Offaly,,Ireland,"Church Abbey,Monastery,Churches,Abbeys and Monastery"
Cuan an Daingin (Dingle Harbour),,,-10.278091,52.139049,Kerry,Dingle,Ireland,Embarkation Point
Cuan na hAisl?ime (Ashleam Bay),,,-9.9970436,53.957327,Mayo,,Ireland,Discovery Point
Culdaff Beach,,,-7.1449971,55.291806,Donegal,,Ireland,Discovery Point
Culdaff Blue Flag Beach 2019,,,-7.150956748,55.29340991,Donegal,Culdaff,Republic of Ireland,Beach
Culleenamore Middens,http://www.carrowkeel.com/sites/coolrea/culleenamore.html,,-8.6092376,54.260578,Sligo,Strandhill,Ireland,"Church Abbey,Monastery,Churches,Abbeys and Monastery"
Cullenstown Strand Green Coast Award 2019,http://www.cleancoastsireland.org,,-6.712892357,52.21761982,Wexford,,Ireland,Beach
Culleton?s Gap Green Coast Beach 2019,,,-6.365338225,52.3718065,Wexford,Curracloe,Ireland,Beach
Cunnamore Pier,,,-9.424822,51.503928,,,Ireland,Embarkation Point
Curracloe Beach,,3.53539E+11,-6.3621414,52.3881772,Wexford,Curracloe,Ireland,"Beach,Swimming,Swimming Pools and Water Park,Venue,Walking"
Curraghchase Forest Park,http://www.coillteoutdoors.ie/index.php?id=171&rec_site=109&activity=&no_cache=1,+353(0)61337322,-8.877870085,52.61873927,Limerick,Kilcornan,Republic of Ireland,"Forest Park,Park and Forest Walk,Walking,National Park,National and Forest Park,Public Park,Nature and Wildlife"
Curragh Chase - Glenisca Trail,http://www.coillteoutdoors.ie/uploads/tx_r3coillterecreationsites/Glenisca_Trail_01.pdf,+353(0)12011199,-8.872454342,52.59469942,Wicklow,,Ireland,"Forest Park,Park and Forest Walk,Walking,National Park,National and Forest Park,Public Park,Nature and Wildlife"
Curraghduff Farm,https://www.curraghduffalpacas.com/,3.53874E+11,-9.4097531,53.4756443,Galway,Oughterard,Ireland,Visitor Farm
Curragh Green Coast Beach 2019,,,-7.70896021,51.96696584,Waterford,Ardmore,Ireland,Beach
Curragh Military Museum,https://www.military.ie/en/public-information/defence-forces-museums/the-curragh-museum,35345445342,-6.8309714,53.1458507,Kildare,,Ireland,Museums and Attraction
Curraghmore House,http://www.curraghmorehouse.ie,3.53868E+11,-7.3593677,52.2902256,Waterford,Portlaw,Ireland,"Historic Houses and Castle,Castle"
Curraghmore House & Gardens,http://www.curraghmorehouse.ie,35351387101,-7.3593677,52.2902256,Waterford,Portlaw,Ireland,"Gardening,Nature and Wildlife,Gardens,Garden"
Custom House Studios & Gallery,http://www.customhousestudios.ie,3539828735,-9.547123817,53.80022361,Mayo,Westport,Republic of Ireland,"Craft,Shopping,Art Gallery"
Dalkey Castle & Heritage Centre,http://www.dalkeycastle.com,+353(0)12858366,-6.105461,53.278024,Dublin,Dalkey,Republic of Ireland,"Historic Houses and Castle,Castle"
Daniel O'Connell - Fidelity - O'Connell Monument,http://www.talkingstatuesdublin.ie/,,-6.259333434,53.34770323,Dublin,,Republic of Ireland,Public Sculpture
Danny Vincent Smith Studio,http://dannyvincentsmith.com,3.53864E+11,-9.4486452,51.6831999,Cork,Bantry,Ireland,"Craft,Shopping,Art Gallery"
Dan O?Hara?s Homestead - Connemara Heritage & History Centre,http://www.connemaraheritage.com,3539521246,-9.9117698,53.4792441,Galway,Clifden,Ireland,Museums and Attraction
Dardistown Castle,http://www.dardistowncastle.ie,3.5342E+11,-6.3136965,53.6645112,Meath,Julianstown,Ireland,"Historic Houses and Castle,Castle"
Dartfield Country Estate and Horse Museum,http://www.dartfield.com,35391843968,-8.479863,53.219883,Galway,Kilreekill,Ireland,Museums and Attraction
DCU Language Services -Dublin City University,http://www.english.dcu.ie,+353(0)17008443,-6.258359,53.385171,Dublin,Glasnevin,Republic of Ireland,"Learning,Museums and Attraction"
Dead Centre Brewing Company,http://deadcentrebrewing.com,3.53906E+11,-7.9406642,53.4236546,Westmeath,Athlone,Ireland,"Food and Drink,Restaurant,Museums and Attraction"
De Bruir Design Ltd.,http://debruir.com,3.53876E+11,-6.918311383,53.15750646,Kildare,Kildare Town,Ireland,"Craft,Shopping,Learning,Museums and Attraction"
Delfin English School,http://www.delfinschool.com/en/dublin/,+353(0)18722037,-6.26189053,53.35350652,Dublin,,Republic of Ireland,"Golf,Learning,Museums and Attraction"
Delta Sensory Gardens,http://deltasensorygardens.com/,3.53599E+11,-6.9257981,52.8446785,Carlow,,Ireland,"Cafe,Food and Drink,Food Shops,Shopping,Gardening,Nature and Wildlife,Gardens,Garden"
Derreen Gardens,http://www.derreengarden.com,3.53647E+11,-9.7770789,51.7662402,Kerry,,Ireland,"Gardening,Nature and Wildlife,Gardens,Garden"
Derrigimlagh,,,-10.03306,53.467003,Galway,,Ireland,Discovery Point
Derryglad Folk and Heritage Museum,http://www.derrygladfolkmuseum.com,3.53906E+11,-8.0799466,53.4656692,Roscommon,,Ireland,Museums and Attraction
Derrymore Beach,,+353(0)667121288,-9.842923401,52.24068427,Kerry,Derrymore,Republic of Ireland,Beach
Derrynane Blue Flag Beach 2019,http://www.blueflag.org,+353(0)646631633,-10.1344903,51.75829805,Kerry,Derrynane,Republic of Ireland,Beach
"Derrynane House, National Historic Park",http://www.heritageireland.ie/en/South-West/DerrynaneHouse,+353(0)669475113,-10.13105279,51.76248577,Kerry,Caherdaniel,Republic of Ireland,"Forest Park,Park and Forest Walk,Walking,National Park,National and Forest Park,Public Park,Nature and Wildlife"
"Derrynane House, National Historic Park",http://www.heritageireland.ie/en/south-west/derrynanehouse,3.53669E+11,-10.1306684,51.762446,Kerry,,Ireland,"Historic Houses and Castle,Castle"
Des Carty Traditional Music School,http://www.descartymusicschool.ie/,+353(0)14520611,-6.365483477,53.27638733,Dublin,Rathcoole,Republic of Ireland,"Learning,Museums and Attraction"
Desmond Castle Adare,http://www.adareheritagecentre.ie/castle-tours,35361396666,-8.78202,52.569504,Limerick,Adare,Ireland,"Historic Houses and Castle,Castle"
Desmond Castle and Wine Museum,http://www.heritageireland.ie/en/south-west/desmondcastle,3.53215E+11,-8.524855,51.706922,Cork,Kinsale,Republic of Ireland,Museums and Attraction
Desmond Castle Wine Museum,http://www.heritageireland.ie/en/south-west/desmondcastle/,+353(0)214774855,-8.524855,51.706922,Cork,Kinsale,Republic of Ireland,"Historic Houses and Castle,Castle"
Desmond Hall,http://www.heritageireland.ie/en/shannon-region/desmondhall,3536977408,-9.060708,52.450419,Limerick,Newcastle West,Republic of Ireland,"Historic Houses and Castle,Castle"
De Valera Museum and Bruree Heritage Centre,http://visitballyhoura.com/index.php/2015/07/22/de-valera-museum-bruree-heritage-centre,3.53864E+11,-8.662829,52.4244926,Limerick,Bruree,Ireland,Museums and Attraction
Dhu Varren Garden,http://www.dhuvarrengarden.com,3.53876E+11,-9.696926,52.1342514,Kerry,Milltown,Ireland,"Gardening,Nature and Wildlife,Gardens,Garden"
Dingle Art School,http://www.dingleartschool.ie,3.53857E+11,-10.289276,52.141836,Kerry,Dingle,Ireland,"Craft,Shopping,Learning,Museums and Attraction"
Dingle Cookery School,https://www.facebook.com/pages/Dingle-Cookery-School/550799285065901,3.53869E+11,-10.26925507,52.14125683,Kerry,Dingle,Ireland,"Food and Drink,Cooking,Cookery,Learning,Museums and Attraction"
Dingle Darkroom - Photo Tours in Kerry,http://dingledarkroom.com,3.53838E+11,-10.28734445,52.14245644,Kerry,Milltown,Ireland,"Learning,Museums and Attraction,Photography"
Dingle Oceanworld Aquarium,https://www.dingle-oceanworld.ie/,3.53669E+11,-10.278295,52.139904,Kerry,Dingle,Ireland,Zoos and Aquarium
Dingle Whiskey Distillery,http://dingledistillery.ie,3.53664E+11,-10.2892974,52.1418288,Kerry,,Ireland,Museums and Attraction
Djinn Jewellery,http://www.facebook.com/Djinn-Jewellery-144567575634489/,+353(0)14759919,-6.265244795,53.33601174,Dublin,,Ireland,"Craft,Shopping,Learning,Museums and Attraction"
D?n An ?ir,"http://www.megalithicireland.com/Dun%20an%20Oir,%20Smerwick.html",,-10.4149455,52.1901965,Kerry,Smerwick,Ireland,"Church Abbey,Monastery,Churches,Abbeys and Monastery"
D?n Aonghasa,http://www.visitaranislands.com,3539961008,-9.757413,53.129874,Galway,Aran Islands,Republic of Ireland,Museums and Attraction
D?nlann Yawl Art Gallery,http://www.achillpainting.com,+353(0)9820401,-9.91098,53.9345,Mayo,,Ireland,"Craft,Shopping,Art Gallery"
D?nlann Yawl Art Gallery Painting School,http://www.achillpainting.com,3539836137,-9.831757,53.94908,Mayo,,Republic of Ireland,"Craft,Shopping,Learning,Museums and Attraction"
D?n na mB? (Doonamo Point),,,-10.07531,54.264572,Mayo,,Ireland,Discovery Point
D?n Na S?ad Castle,http://www.baltimorecastle.ie,3532820735,-9.3731024,51.4835713,Cork,Baltimore,Ireland,"Historic Houses and Castle,Castle"
D?n na S? Amenity and Heritage Park Association,http://www.dunnasi.ie,3.53906E+11,-7.7376366,53.4002064,Westmeath,Moate,Ireland,"Tracing Your Ancestors,Museums and Attraction"
Doagh Famine Village,http://www.facebook.com/doaghfaminevillage,3.53749E+11,-7.335867,55.308903,Donegal,,Ireland,Museums and Attraction
Dodd's Rock Beach,http://www.visitwexford.ie/locations/dodds-rocks-beach,,-6.213459105,52.663357,Wexford,Courtown,Republic of Ireland,Beach
Doe Castle,http://www.heritageireland.ie/en/north-west/doecastle,3.53873E+11,-7.8645123,55.1352927,Donegal,,Ireland,"Historic Houses and Castle,Castle"
Doe Castle View,,,-7.8514212,55.128775,Donegal,,Ireland,Discovery Point
Dog's Bay Beach,,,-9.961441097,53.37969391,Galway,Roundstone,Ireland,Beach
Doheny & Nesbitt,http://dohenyandnesbitts.ie,+353(0)16762945,-6.252872,53.338038,Dublin,,Ireland,"Historic Houses and Castle,Castle"
Dolly's Cottage,https://www.facebook.com/DollysCottage,3.53719E+11,-8.5841759,54.270777,Sligo,Strandhill,Ireland,"Historic Houses and Castle,Castle"
Dominican Abbey Lorrha,"http://www.megalithicireland.com/Lorrha%20Dominican%20Friary,%20Tipperary.html",,-8.1257745,53.0908735,Tipperary,Lorrha,Ireland,"Church Abbey,Monastery,Churches,Abbeys and Monastery"
Donabate Beach,http://www.blueflagireland.org/balcarrick-donabate/beach-description.627.html,+353(0)18400077,-6.115920704,53.47674432,Dublin,Donabate,Republic of Ireland,Beach
Donadea Forest Park,https://www.coillte.ie/site/donadea-forest-park,3.53579E+11,-6.7419684,53.3466766,Kildare,Donadea,Ireland,"Forest Park,Park and Forest Walk,Walking,National Park,National and Forest Park,Public Park,Nature and Wildlife"
Donaghmore Famine Workhouse Museum,http://donaghmoremuseum.ie,3.53868E+11,-7.6125907,52.8770211,Laois,Donaghmore,Ireland,Museums and Attraction
Donaghmore Round Tower,http://www.navanhistory.ie/index.php?page=donaghmore,,-6.6624651,53.670453,Meath,,Ireland,"Church Abbey,Monastery,Churches,Abbeys and Monastery,Ruins,Historic Houses and Castle"
Donaghpatrick Church,http://www.discoverboynevalley.ie/boyne-valley-drive/heritage-sites/donaghpatrick-church,,-6.7595492,53.6965617,Meath,,Ireland,"Church Abbey,Monastery,Churches,Abbeys and Monastery"
Donamon Castle,https://www.visitroscommon.ie/donamon-castle,3.53907E+11,-8.318385833,53.63204901,Roscommon,,Republic of Ireland,"Historic Houses and Castle,Castle"
Donegal Bake School,http://donegalmanor.com/cookery-classes-donegal,3.5375E+11,-8.0795833,54.6613287,Donegal,Donegal Town,Ireland,"Cooking,Cookery,Learning,Museums and Attraction"
Donegal Castle,http://www.heritageireland.ie/en/north-west/donegalcastle/,+353(0)749722405,-8.11090678,54.65440365,Donegal,Donegal Town,Republic of Ireland,"Historic Houses and Castle,Castle"
Donegal County Museum,http://www.facebook.com/Donegalcomuseum,3.53749E+11,-7.735013,54.9544154,Donegal,Letterkenny,Ireland,Museums and Attraction
Donegal Craft Village,http://www.donegalcraftvillage.com,3.5375E+11,-8.1151133,54.6407058,Donegal,,Ireland,"Craft,Shopping,Learning,Museums and Attraction"
Donegal English Language School,http://www.donegallanguageschool.com,3.5372E+11,-8.299591,54.47651,Donegal,Bundoran,Republic of Ireland,"Learning,Museums and Attraction"
Donegal Garden Trail,http://www.donegalgardentrail.com/,3.5388E+11,-8.1102391,54.6537983,Donegal,,Ireland,"Gardening,Nature and Wildlife,Gardens,Garden"
Donegal Photo Tours,https://www.facebook.com/Donegalphotographictours,3.53862E+11,-7.453633702,55.13279204,Donegal,Buncrana,Ireland,"Learning,Museums and Attraction,Photography"
Donegal Railway Heritage Centre,http://donegalrailway.com,3.5375E+11,-8.1080224,54.656847,Donegal,Milltown,Ireland,"Museums and Attraction,Coach,Road,Transport"
"Dooega, Achill Island Blue Flag Beach 2019",http://www.blueflagireland.org/,+353(0)14002202,-10.02055876,53.92482246,Mayo,,Republic of Ireland,Beach
Dooey Green Coast Beach 2019,http://www.cleancoastsireland.org/green-coast-award.php,,-8.747734685,54.7148525,Donegal,Glencolmcille,Republic of Ireland,"Beach,Swimming,Swimming Pools and Water Park,Venue,Walking"
Doolin Cave,https://www.doolincave.ie,3.53657E+11,-9.3451492,53.0409745,Clare,Doolin,Ireland,"Museums and Attraction,Natural Landscape,Tour"
Doolin Music House,http://doolinmusichouse.com,3.53868E+11,-9.326662134,53.01415626,Clare,Doolin,Ireland,Museums and Attraction
Doolin Pier,,,-9.4045007,53.015342,Clare,Doolin,Ireland,Embarkation Point
Doolough Valley,,,-9.7813189,53.666223,Mayo,,Ireland,Discovery Point
Dooneen Pier,,,-10.055502,51.648764,Cork,Kilcrohane,Republic of Ireland,Discovery Point
Dooneen Pier Green Coast Beach 2019,,,-9.732842698,51.5604858,Cork,Kilcrohane,Ireland,Beach
Doon Forest,http://www.coillte.ie/site/doon/,+353(0)61337322,-8.652899999,52.81693355,Clare,Broadford,Republic of Ireland,"Forest Park,Park and Forest Walk,Walking,National Park,National and Forest Park,Public Park,Nature and Wildlife"
Doorly Park,http://www.discoverireland.ie/Places-To-Go/Sligo,,-8.45691,54.2683,Sligo,Sligo Town,Republic of Ireland,"Forest Park,Park and Forest Walk,Walking,National Park,National and Forest Park,Public Park,Nature and Wildlife"
Doran's Point,,,-9.8685068,54.005341,Mayo,Ballycroy,Ireland,Embarkation Point
Doreen Drennan Art Gallery and Garden,http://doreendrennan.com,3.53879E+11,-9.3217676,53.0316889,Clare,Lisdoonvarna,Ireland,"Craft,Shopping,Art Gallery"
Dorset College,http://www.dorset-college.ie,+353(0)18306129,-6.26061,53.360877,Dublin,Dublin City Centre,Republic of Ireland,"Learning,Museums and Attraction"
Doughmore Bay,,,-9.504238,52.745639,Clare,Doonbeg,Ireland,Discovery Point
Douglas Hyde Gallery,https://www.facebook.com/douglashydegallery,35318961116,-6.257711,53.34328,Dublin,Dublin City Centre,Republic of Ireland,"Craft,Shopping,Food Shops,Art Gallery,Photography,Learning"
Douglas Hyde Interpretive Centre,http://www.roscommoncoco.ie/en/Services/Tourism/Recreation/Douglas_Hyde_Centre,3.53878E+11,-8.4516406,53.8817228,Roscommon,Frenchpark,Ireland,Museums and Attraction
Downings Blue Flag Beach 2019,,,-7.838019391,55.19248772,Donegal,Downings,Ireland,Beach
Downpatrick Head,,,-9.3459186,54.322906,Mayo,Ballycastle,Ireland,Discovery Point
Downpatrick Head,http://www.mayo.ie/dnn/EventsandAttractions/EventsAttractions.aspx?EAID=75369#link2oneEA,,-9.345262191,54.32799086,Mayo,Downpatrick,Ireland,Natural Landscape
Dowth,https://www.newgrange.com/dowth.htm,3.5342E+11,-6.4503688,53.7038365,Meath,,Ireland,"Church Abbey,Monastery,Churches,Abbeys and Monastery"
Drawing Walks,http://www.drawingwalks.com,3.5388E+11,-8.522522858,51.70738655,Cork,Kinsale,Ireland,"Craft,Shopping,Learning,Museums and Attraction"
Drimnagh Castle,http://www.drimnaghcastle.org/,+353(0)14502530,-6.33295,53.324844,Dublin,,Republic of Ireland,"Historic Houses and Castle,Castle"
Drioglann Loch Measc,http://www.loughmaskdistillery.com,3.5395E+11,-9.444465944,53.61168748,Mayo,Tourmakeady,Ireland,Museums and Attraction
Drishane House,https://drishane.com,3532836126,-9.1811823,51.5261146,Cork,Drishane,Ireland,"Historic Houses and Castle,Castle"
Drogheda Museum Millmount,http://www.millmount.net,3.5342E+11,-6.350255038,53.7117854,Louth,Drogheda,Republic of Ireland,Museums and Attraction
Droichead Charraig an Log?in (Carrickalegaun Bridge) .,,,-9.6563065,53.288173,Galway,Lettermore,Ireland,Discovery Point
Dromana Gate,https://dromanahouse.com/history,3532496144,-7.863762522,52.1093223,Waterford,Cappoquin,Republic of Ireland,Historic Houses and Castle
Dromana House Gardens,https://dromanahouse.com,3532496144,-7.8651795,52.1075711,Waterford,Cappoquin,Ireland,"Gardening,Nature and Wildlife,Gardens,Garden"
Dromore Wood Nature Reserve & Visitor Centre,http://www.heritageireland.ie/en/shannon-region/dromorewood/,+353(0)91631804,-8.994417002,52.84020898,Clare,Ennis,Republic of Ireland,"Forest Park,Park and Forest Walk,Walking,National Park,National and Forest Park,Public Park,Nature and Wildlife"
Drumcliffe Round Tower And High Cross,http://www.megalithicireland.com/High%20Cross%20Drumcliffe.htm,,-8.4959115,54.3262835,Sligo,,Ireland,"Church Abbey,Monastery,Churches,Abbeys and Monastery"
Drum Heritage Centre,http://www.drumheritage.ie,3.53852E+11,-7.955041592,53.42005126,Westmeath,Drum,Republic of Ireland,Museums and Attraction
Drumhome Monastic Site,http://www.donegaldiaspora.ie/place/drumholms-monastic-mystery,,-8.125322417,54.57758752,Donegal,Ballintra,Ireland,"Church Abbey,Monastery,Churches,Abbeys and Monastery"
Drumkeerin Heritage Centre,,3.5372E+11,-8.147950078,54.17060467,Leitrim,,Republic of Ireland,Visitor Farm
